$GPRMC,090107.000,A,4849.6098,N,00906.1879,E,27.41,82.37,111110,,,A*60
$GPRMC,090108.000,A,4849.6107,N,00906.1993,E,27.63,83.04,111110,,,A*6C
$GPRMC,090109.000,A,4849.6115,N,00906.2108,E,27.76,83.19,111110,,,A*6F
$GPRMC,090110.000,A,4849.6124,N,00906.2224,E,27.94,82.42,111110,,,A*6B
$GPRMC,090111.000,A,4849.6135,N,00906.2341,E,28.02,82.34,111110,,,A*69
$GPRMC,090112.000,A,4849.6144,N,00906.2457,E,27.95,81.93,111110,,,A*63
$GPRMC,090113.000,A,4849.6156,N,00906.2573,E,27.89,80.93,111110,,,A*6A
$GPRMC,090114.000,A,4849.6166,N,00906.2688,E,27.84,81.17,111110,,,A*69
$GPRMC,090115.000,A,4849.6177,N,00906.2803,E,27.85,81.69,111110,,,A*6D
$GPRMC,090116.000,A,4849.6187,N,00906.2919,E,28.02,82.19,111110,,,A*6F
$GPRMC,090117.000,A,4849.6195,N,00906.3035,E,28.02,83.14,111110,,,A*67
$GPRMC,090118.000,A,4849.6203,N,00906.3151,E,28.16,82.61,111110,,,A*61
$GPRMC,090119.000,A,4849.6211,N,00906.3268,E,28.29,82.03,111110,,,A*62
$GPRMC,090120.000,A,4849.6222,N,00906.3386,E,28.34,81.88,111110,,,A*65
$GPRMC,090121.000,A,4849.6232,N,00906.3504,E,28.34,82.23,111110,,,A*6B
$GPRMC,090122.000,A,4849.6241,N,00906.3622,E,28.26,82.45,111110,,,A*68
$GPRMC,090123.000,A,4849.6250,N,00906.3739,E,28.16,82.56,111110,,,A*63
$GPRMC,090124.000,A,4849.6259,N,00906.3855,E,28.03,82.54,111110,,,A*6E
$GPRMC,090125.000,A,4849.6268,N,00906.3971,E,27.92,82.44,111110,,,A*6C
$GPRMC,090126.000,A,4849.6278,N,00906.4087,E,27.76,82.23,111110,,,A*62
$GPRMC,090127.000,A,4849.6286,N,00906.4201,E,27.56,82.38,111110,,,A*66
$GPRMC,090128.000,A,4849.6294,N,00906.4314,E,26.74,83.50,111110,,,A*61
$GPRMC,090129.000,A,4849.6304,N,00906.4423,E,25.80,82.49,111110,,,A*6A
$GPRMC,090130.000,A,4849.6313,N,00906.4529,E,25.36,82.02,111110,,,A*6D
$GPRMC,090131.000,A,4849.6322,N,00906.4632,E,24.49,81.78,111110,,,A*60
$GPRMC,090132.000,A,4849.6334,N,00906.4732,E,23.34,82.55,111110,,,A*64
$GPRMC,090133.000,A,4849.6338,N,00906.4824,E,21.13,87.64,111110,,,A*61
$GPRMC,090134.000,A,4849.6324,N,00906.4904,E,19.15,110.82,111110,,,A*52
$GPRMC,090135.000,A,4849.6298,N,00906.4968,E,17.11,127.45,111110,,,A*5A
$GPRMC,090136.000,A,4849.6258,N,00906.5017,E,19.43,145.72,111110,,,A*5C
$GPRMC,090137.000,A,4849.6212,N,00906.5052,E,18.87,154.23,111110,,,A*5F
$GPRMC,090138.000,A,4849.6155,N,00906.5071,E,22.40,171.96,111110,,,A*5A
$GPRMC,090139.000,A,4849.6093,N,00906.5082,E,22.87,175.10,111110,,,A*5D
$GPRMC,090140.000,A,4849.6029,N,00906.5090,E,24.39,176.12,111110,,,A*53
$GPRMC,090141.000,A,4849.5961,N,00906.5097,E,24.91,176.34,111110,,,A*55
$GPRMC,090142.000,A,4849.5892,N,00906.5104,E,25.23,176.17,111110,,,A*59
$GPRMC,090143.000,A,4849.5818,N,00906.5108,E,25.81,176.67,111110,,,A*59
$GPRMC,090144.000,A,4849.5746,N,00906.5114,E,25.78,175.31,111110,,,A*51
$GPRMC,090145.000,A,4849.5676,N,00906.5124,E,25.68,174.97,111110,,,A*5D
$GPRMC,090146.000,A,4849.5606,N,00906.5134,E,25.11,175.51,111110,,,A*5D
$GPRMC,090147.000,A,4849.5541,N,00906.5145,E,24.05,173.94,111110,,,A*51
$GPRMC,090148.000,A,4849.5476,N,00906.5154,E,23.25,176.08,111110,,,A*5E
$GPRMC,090149.000,A,4849.5413,N,00906.5157,E,22.19,179.33,111110,,,A*56
$GPRMC,090150.000,A,4849.5352,N,00906.5154,E,21.33,182.93,111110,,,A*5A
$GPRMC,090151.000,A,4849.5296,N,00906.5144,E,18.94,187.91,111110,,,A*53
$GPRMC,090152.000,A,4849.5244,N,00906.5123,E,15.82,194.32,111110,,,A*5F
$GPRMC,090153.000,A,4849.5205,N,00906.5082,E,17.11,214.35,111110,,,A*55
$GPRMC,090154.000,A,4849.5180,N,00906.5024,E,17.06,237.54,111110,,,A*50
$GPRMC,090155.000,A,4849.5166,N,00906.4951,E,18.36,253.65,111110,,,A*5F
$GPRMC,090156.000,A,4849.5157,N,00906.4867,E,21.57,259.55,111110,,,A*5E
$GPRMC,090157.000,A,4849.5145,N,00906.4767,E,23.69,259.94,111110,,,A*51
$GPRMC,090158.000,A,4849.5134,N,00906.4664,E,24.43,260.89,111110,,,A*53
$GPRMC,090159.000,A,4849.5126,N,00906.4559,E,25.21,259.87,111110,,,A*5D
$GPRMC,090200.000,A,4849.5117,N,00906.4452,E,25.25,262.49,111110,,,A*54
$GPRMC,090201.000,A,4849.5109,N,00906.4344,E,25.60,262.43,111110,,,A*51
$GPRMC,090202.000,A,4849.5098,N,00906.4234,E,26.11,262.30,111110,,,A*5C
$GPRMC,090203.000,A,4849.5088,N,00906.4122,E,26.50,261.99,111110,,,A*5D
$GPRMC,090204.000,A,4849.5077,N,00906.4010,E,26.65,261.88,111110,,,A*5C
$GPRMC,090205.000,A,4849.5067,N,00906.3897,E,26.83,261.79,111110,,,A*5A
$GPRMC,090206.000,A,4849.5055,N,00906.3783,E,26.81,262.53,111110,,,A*5B
$GPRMC,090207.000,A,4849.5045,N,00906.3669,E,26.92,262.59,111110,,,A*56
$GPRMC,090208.000,A,4849.5035,N,00906.3556,E,27.01,262.15,111110,,,A*52
$GPRMC,090209.000,A,4849.5023,N,00906.3442,E,26.65,262.20,111110,,,A*55
$GPRMC,090210.000,A,4849.5010,N,00906.3328,E,27.03,261.52,111110,,,A*51
$GPRMC,090211.000,A,4849.4998,N,00906.3214,E,26.93,261.51,111110,,,A*5D
$GPRMC,090212.000,A,4849.4986,N,00906.3101,E,27.06,261.21,111110,,,A*5C
$GPRMC,090213.000,A,4849.4976,N,00906.2988,E,26.87,262.46,111110,,,A*50
$GPRMC,090214.000,A,4849.4968,N,00906.2876,E,26.85,262.47,111110,,,A*5B
$GPRMC,090215.000,A,4849.4958,N,00906.2764,E,26.78,262.25,111110,,,A*53
$GPRMC,090216.000,A,4849.4948,N,00906.2652,E,26.76,261.97,111110,,,A*51
$GPRMC,090217.000,A,4849.4937,N,00906.2540,E,26.75,261.76,111110,,,A*54
$GPRMC,090218.000,A,4849.4926,N,00906.2427,E,27.03,261.43,111110,,,A*5D
$GPRMC,090219.000,A,4849.4913,N,00906.2314,E,27.57,259.93,111110,,,A*5A
$GPRMC,090220.000,A,4849.4903,N,00906.2200,E,27.13,261.53,111110,,,A*52
$GPRMC,090221.000,A,4849.4891,N,00906.2087,E,26.99,260.49,111110,,,A*5D