$GPRMC,084144.000,A,4849.4675,N,00905.6512,E,8.33,181.01,111110,,,A*6E
$GPRMC,084145.000,A,4849.4648,N,00905.6514,E,8.68,177.42,111110,,,A*67
$GPRMC,084146.000,A,4849.4623,N,00905.6517,E,8.59,176.29,111110,,,A*64
$GPRMC,084147.000,A,4849.4594,N,00905.6521,E,9.91,176.36,111110,,,A*64
$GPRMC,084148.000,A,4849.4560,N,00905.6524,E,11.17,176.36,111110,,,A*52
$GPRMC,084149.000,A,4849.4525,N,00905.6527,E,12.33,176.52,111110,,,A*56
$GPRMC,084150.000,A,4849.4488,N,00905.6532,E,13.74,176.02,111110,,,A*5B
$GPRMC,084151.000,A,4849.4447,N,00905.6536,E,15.29,176.54,111110,,,A*50
$GPRMC,084152.000,A,4849.4402,N,00905.6540,E,16.30,175.23,111110,,,A*5B
$GPRMC,084153.000,A,4849.4352,N,00905.6545,E,17.91,176.22,111110,,,A*55
$GPRMC,084154.000,A,4849.4304,N,00905.6550,E,17.88,175.85,111110,,,A*53
$GPRMC,084155.000,A,4849.4252,N,00905.6553,E,18.45,176.78,111110,,,A*5C
$GPRMC,084156.000,A,4849.4202,N,00905.6557,E,16.38,176.17,111110,,,A*53
$GPRMC,084157.000,A,4849.4159,N,00905.6560,E,14.13,176.35,111110,,,A*50
$GPRMC,084158.000,A,4849.4118,N,00905.6560,E,13.39,177.60,111110,,,A*54
$GPRMC,084159.000,A,4849.4081,N,00905.6564,E,13.95,178.38,111110,,,A*54
$GPRMC,084200.000,A,4849.4041,N,00905.6565,E,14.86,179.17,111110,,,A*5F
$GPRMC,084201.000,A,4849.3999,N,00905.6563,E,15.29,181.33,111110,,,A*56
$GPRMC,084202.000,A,4849.3956,N,00905.6558,E,15.11,186.90,111110,,,A*5B
$GPRMC,084203.000,A,4849.3918,N,00905.6544,E,13.66,197.11,111110,,,A*52
$GPRMC,084204.000,A,4849.3883,N,00905.6519,E,15.55,208.04,111110,,,A*59
$GPRMC,084205.000,A,4849.3852,N,00905.6484,E,15.19,214.14,111110,,,A*55
$GPRMC,084206.000,A,4849.3821,N,00905.6450,E,14.36,213.25,111110,,,A*52
$GPRMC,084207.000,A,4849.3791,N,00905.6426,E,13.63,210.24,111110,,,A*53
$GPRMC,084208.000,A,4849.3761,N,00905.6408,E,12.79,201.63,111110,,,A*56
$GPRMC,084209.000,A,4849.3734,N,00905.6396,E,10.24,199.44,111110,,,A*5A
$GPRMC,084210.000,A,4849.3711,N,00905.6392,E,9.38,195.02,111110,,,A*6A
$GPRMC,084211.000,A,4849.3685,N,00905.6388,E,10.74,191.45,111110,,,A*5B
$GPRMC,084212.000,A,4849.3648,N,00905.6386,E,12.80,184.18,111110,,,A*52
$GPRMC,084213.000,A,4849.3606,N,00905.6387,E,15.21,181.26,111110,,,A*5C
$GPRMC,084214.000,A,4849.3562,N,00905.6389,E,16.40,177.17,111110,,,A*5B
$GPRMC,084215.000,A,4849.3518,N,00905.6397,E,15.28,176.66,111110,,,A*52
$GPRMC,084216.000,A,4849.3474,N,00905.6403,E,13.79,176.52,111110,,,A*55
$GPRMC,084217.000,A,4849.3436,N,00905.6405,E,12.14,176.96,111110,,,A*56
$GPRMC,084218.000,A,4849.3405,N,00905.6419,E,10.66,167.81,111110,,,A*55
$GPRMC,084219.000,A,4849.3383,N,00905.6442,E,10.91,150.29,111110,,,A*5D
$GPRMC,084220.000,A,4849.3370,N,00905.6488,E,11.27,135.65,111110,,,A*5A
$GPRMC,084221.000,A,4849.3364,N,00905.6544,E,14.02,116.72,111110,,,A*5A
$GPRMC,084222.000,A,4849.3361,N,00905.6611,E,15.71,108.61,111110,,,A*57
$GPRMC,084223.000,A,4849.3357,N,00905.6685,E,17.95,98.16,111110,,,A*6E
$GPRMC,084224.000,A,4849.3356,N,00905.6768,E,19.44,94.75,111110,,,A*61
$GPRMC,084225.000,A,4849.3356,N,00905.6851,E,18.63,92.09,111110,,,A*6C
$GPRMC,084226.000,A,4849.3354,N,00905.6927,E,17.39,91.56,111110,,,A*64
$GPRMC,084227.000,A,4849.3355,N,00905.7000,E,16.36,92.26,111110,,,A*63
$GPRMC,084228.000,A,4849.3352,N,00905.7066,E,14.92,92.86,111110,,,A*6D
$GPRMC,084229.000,A,4849.3358,N,00905.7122,E,12.47,87.31,111110,,,A*61
$GPRMC,084230.000,A,4849.3376,N,00905.7168,E,12.01,72.50,111110,,,A*64
$GPRMC,084231.000,A,4849.3393,N,00905.7203,E,8.57,68.20,111110,,,A*54
$GPRMC,084232.000,A,4849.3413,N,00905.7234,E,9.43,56.26,111110,,,A*53
$GPRMC,084233.000,A,4849.3445,N,00905.7261,E,14.44,37.09,111110,,,A*60
$GPRMC,084234.000,A,4849.3485,N,00905.7297,E,17.30,32.91,111110,,,A*66
$GPRMC,084235.000,A,4849.3538,N,00905.7340,E,19.39,30.92,111110,,,A*6D
$GPRMC,084236.000,A,4849.3586,N,00905.7382,E,17.26,33.52,111110,,,A*6A
$GPRMC,084237.000,A,4849.3631,N,00905.7423,E,16.23,37.41,111110,,,A*6A
$GPRMC,084238.000,A,4849.3658,N,00905.7468,E,14.31,41.52,111110,,,A*67
$GPRMC,084239.000,A,4849.3679,N,00905.7507,E,11.00,50.96,111110,,,A*62
$GPRMC,084240.000,A,4849.3687,N,00905.7547,E,9.25,62.02,111110,,,A*5B
$GPRMC,084241.000,A,4849.3684,N,00905.7580,E,7.42,71.26,111110,,,A*59
$GPRMC,084242.000,A,4849.3683,N,00905.7603,E,4.07,72.68,111110,,,A*5E
$GPRMC,084243.000,A,4849.3684,N,00905.7612,E,0.95,72.68,111110,,,A*57
$GPRMC,084244.000,A,4849.3682,N,00905.7613,E,0.42,72.68,111110,,,A*5D
$GPRMC,084245.000,A,4849.3682,N,00905.7617,E,0.32,72.68,111110,,,A*5F
$GPRMC,084246.000,A,4849.3679,N,00905.7617,E,0.05,72.68,111110,,,A*5C
$GPRMC,084247.000,A,4849.3678,N,00905.7622,E,0.06,72.68,111110,,,A*59
$GPRMC,084248.000,A,4849.3677,N,00905.7624,E,0.06,72.68,111110,,,A*5F
$GPRMC,084249.000,A,4849.3677,N,00905.7624,E,0.00,72.68,111110,,,A*58
$GPRMC,084250.000,A,4849.3677,N,00905.7628,E,5.08,70.81,111110,,,A*54
$GPRMC,084251.000,A,4849.3684,N,00905.7650,E,7.44,67.71,111110,,,A*55
$GPRMC,084252.000,A,4849.3706,N,00905.7669,E,10.79,28.62,111110,,,A*66
$GPRMC,084253.000,A,4849.3727,N,00905.7674,E,6.91,23.57,111110,,,A*54
$GPRMC,084254.000,A,4849.3749,N,00905.7662,E,8.65,10.26,111110,,,A*5F
$GPRMC,084255.000,A,4849.3770,N,00905.7651,E,7.67,5.08,111110,,,A*61
$GPRMC,084256.000,A,4849.3786,N,00905.7648,E,4.18,0.16,111110,,,A*62
$GPRMC,084257.000,A,4849.3796,N,00905.7647,E,2.79,357.91,111110,,,A*62
$GPRMC,084258.000,A,4849.3812,N,00905.7646,E,3.94,352.70,111110,,,A*67
$GPRMC,084259.000,A,4849.3836,N,00905.7640,E,8.42,352.32,111110,,,A*60
$GPRMC,084300.000,A,4849.3870,N,00905.7638,E,9.81,355.56,111110,,,A*6B
$GPRMC,084301.000,A,4849.3901,N,00905.7643,E,9.51,6.96,111110,,,A*65
$GPRMC,084302.000,A,4849.3928,N,00905.7657,E,9.35,15.88,111110,,,A*57
$GPRMC,084303.000,A,4849.3960,N,00905.7692,E,12.12,46.61,111110,,,A*6D
$GPRMC,084304.000,A,4849.3978,N,00905.7743,E,14.24,57.34,111110,,,A*6D
$GPRMC,084305.000,A,4849.3980,N,00905.7804,E,15.07,71.24,111110,,,A*62
$GPRMC,084306.000,A,4849.3980,N,00905.7877,E,19.34,79.16,111110,,,A*60
$GPRMC,084307.000,A,4849.3989,N,00905.7960,E,19.65,86.14,111110,,,A*69
$GPRMC,084308.000,A,4849.3992,N,00905.8051,E,22.04,87.52,111110,,,A*64
$GPRMC,084309.000,A,4849.3996,N,00905.8151,E,24.77,88.21,111110,,,A*69
$GPRMC,084310.000,A,4849.4008,N,00905.8259,E,25.71,85.42,111110,,,A*6C
$GPRMC,084311.000,A,4849.4013,N,00905.8370,E,25.56,87.44,111110,,,A*6C
$GPRMC,084312.000,A,4849.4009,N,00905.8481,E,25.69,93.75,111110,,,A*66
$GPRMC,084313.000,A,4849.4011,N,00905.8591,E,25.78,91.41,111110,,,A*6B
$GPRMC,084314.000,A,4849.4038,N,00905.8704,E,26.12,87.48,111110,,,A*68
$GPRMC,084315.000,A,4849.4043,N,00905.8816,E,26.18,87.55,111110,,,A*6F
$GPRMC,084316.000,A,4849.4045,N,00905.8927,E,25.75,87.82,111110,,,A*6B
$GPRMC,084317.000,A,4849.4045,N,00905.9037,E,26.02,88.88,111110,,,A*65
$GPRMC,084318.000,A,4849.4042,N,00905.9150,E,26.20,92.79,111110,,,A*68
$GPRMC,084319.000,A,4849.4040,N,00905.9260,E,26.02,93.10,111110,,,A*65
$GPRMC,084320.000,A,4849.4050,N,00905.9373,E,26.05,88.15,111110,,,A*65
$GPRMC,084321.000,A,4849.4054,N,00905.9480,E,25.47,88.62,111110,,,A*6E
$GPRMC,084322.000,A,4849.4057,N,00905.9588,E,24.93,88.45,111110,,,A*6A
$GPRMC,084323.000,A,4849.4061,N,00905.9692,E,24.20,87.94,111110,,,A*6D
$GPRMC,084324.000,A,4849.4063,N,00905.9794,E,23.07,89.47,111110,,,A*6D
$GPRMC,084325.000,A,4849.4078,N,00905.9887,E,21.48,79.41,111110,,,A*6B
$GPRMC,084326.000,A,4849.4096,N,00905.9976,E,22.59,70.12,111110,,,A*6B
$GPRMC,084327.000,A,4849.4135,N,00906.0067,E,23.86,61.98,111110,,,A*60
$GPRMC,084328.000,A,4849.4177,N,00906.0154,E,24.51,55.81,111110,,,A*6A
$GPRMC,084329.000,A,4849.4222,N,00906.0239,E,25.43,49.89,111110,,,A*67
$GPRMC,084330.000,A,4849.4269,N,00906.0319,E,25.71,45.39,111110,,,A*65
$GPRMC,084331.000,A,4849.4322,N,00906.0395,E,25.20,44.06,111110,,,A*67
$GPRMC,084332.000,A,4849.4382,N,00906.0473,E,26.32,39.55,111110,,,A*6D
$GPRMC,084333.000,A,4849.4437,N,00906.0544,E,25.80,40.88,111110,,,A*64
$GPRMC,084334.000,A,4849.4488,N,00906.0617,E,25.22,43.79,111110,,,A*67
$GPRMC,084335.000,A,4849.4539,N,00906.0692,E,25.22,45.71,111110,,,A*6E
$GPRMC,084336.000,A,4849.4588,N,00906.0769,E,24.92,52.85,111110,,,A*65
$GPRMC,084337.000,A,4849.4627,N,00906.0858,E,25.28,61.11,111110,,,A*62
$GPRMC,084338.000,A,4849.4658,N,00906.0954,E,25.08,66.41,111110,,,A*68
$GPRMC,084339.000,A,4849.4685,N,00906.1052,E,25.08,68.71,111110,,,A*6A
$GPRMC,084340.000,A,4849.4709,N,00906.1150,E,24.83,70.41,111110,,,A*6A
$GPRMC,084341.000,A,4849.4728,N,00906.1252,E,25.28,74.55,111110,,,A*68
$GPRMC,084342.000,A,4849.4744,N,00906.1357,E,25.34,76.85,111110,,,A*67
$GPRMC,084343.000,A,4849.4764,N,00906.1463,E,26.32,75.68,111110,,,A*61
$GPRMC,084344.000,A,4849.4782,N,00906.1574,E,26.47,75.66,111110,,,A*65
$GPRMC,084345.000,A,4849.4806,N,00906.1687,E,26.26,75.47,111110,,,A*6C
$GPRMC,084346.000,A,4849.4825,N,00906.1795,E,24.99,75.60,111110,,,A*6F
$GPRMC,084347.000,A,4849.4839,N,00906.1891,E,21.85,75.86,111110,,,A*68
$GPRMC,084348.000,A,4849.4848,N,00906.1963,E,15.05,78.54,111110,,,A*60
$GPRMC,084349.000,A,4849.4852,N,00906.2017,E,11.29,82.20,111110,,,A*6F
$GPRMC,084350.000,A,4849.4851,N,00906.2053,E,6.87,85.05,111110,,,A*56
$GPRMC,084351.000,A,4849.4850,N,00906.2076,E,4.35,85.51,111110,,,A*5B
$GPRMC,084352.000,A,4849.4851,N,00906.2088,E,1.71,85.51,111110,,,A*5D