$GPRMC,0,A,4849.4449,N,905.6571,E,20,357.36756110192,111110,,,A*6B,0
$GPRMC,100,A,4849.4452,N,905.6571,E,19,357.36756110192,111110,,,A*6B,0
$GPRMC,200,A,4849.4454,N,905.6570,E,19,357.36756110192,111110,,,A*6B,0
$GPRMC,300,A,4849.4456,N,905.6570,E,19,357.36756110192,111110,,,A*6B,0
$GPRMC,400,A,4849.4458,N,905.6570,E,19,357.36756110192,111110,,,A*6B,0
$GPRMC,500,A,4849.4461,N,905.6570,E,18,357.36756110192,111110,,,A*6B,0
$GPRMC,600,A,4849.4463,N,905.6570,E,18,357.36756110192,111110,,,A*6B,0
$GPRMC,700,A,4849.4465,N,905.6570,E,18,357.36756110192,111110,,,A*6B,0
$GPRMC,800,A,4849.4467,N,905.6569,E,18,357.36756110192,111110,,,A*6B,0
$GPRMC,900,A,4849.4470,N,905.6569,E,17,357.36756110192,111110,,,A*6B,0
$GPRMC,1000,A,4849.4472,N,905.6569,E,17,357.36756110192,111110,,,A*6B,0
$GPRMC,1100,A,4849.4474,N,905.6569,E,17,357.36756110192,111110,,,A*6B,0
$GPRMC,1200,A,4849.4476,N,905.6569,E,17,357.36756110192,111110,,,A*6B,0
$GPRMC,1300,A,4849.4479,N,905.6569,E,16,357.36756110192,111110,,,A*6B,0
$GPRMC,1400,A,4849.4481,N,905.6568,E,16,357.36756110192,111110,,,A*6B,0
$GPRMC,1500,A,4849.4483,N,905.6568,E,16,357.36756110192,111110,,,A*6B,0
$GPRMC,1600,A,4849.4485,N,905.6568,E,16,357.36756110192,111110,,,A*6B,0
$GPRMC,1700,A,4849.4488,N,905.6568,E,15,357.36756110192,111110,,,A*6B,0
$GPRMC,1800,A,4849.4490,N,905.6568,E,15,357.36756110192,111110,,,A*6B,0
$GPRMC,1900,A,4849.4492,N,905.6568,E,15,357.36756110192,111110,,,A*6B,0
$GPRMC,2000,A,4849.4494,N,905.6568,E,15,357.36756110192,111110,,,A*6B,0
$GPRMC,2100,A,4849.4497,N,905.6567,E,14,357.36756110192,111110,,,A*6B,0
$GPRMC,2200,A,4849.4499,N,905.6567,E,14,357.36756110192,111110,,,A*6B,0
$GPRMC,2300,A,4849.4501,N,905.6567,E,14,357.36756110192,111110,,,A*6B,0
$GPRMC,2400,A,4849.4503,N,905.6567,E,14,357.36756110192,111110,,,A*6B,0
$GPRMC,2500,A,4849.4506,N,905.6567,E,13,357.36756110192,111110,,,A*6B,0
$GPRMC,2600,A,4849.4508,N,905.6567,E,13,357.36756110192,111110,,,A*6B,0
$GPRMC,2700,A,4849.4510,N,905.6566,E,13,357.36756110192,111110,,,A*6B,0
$GPRMC,2800,A,4849.4512,N,905.6566,E,13,357.36756110192,111110,,,A*6B,0
$GPRMC,2900,A,4849.4515,N,905.6566,E,12,357.36756110192,111110,,,A*6B,0
$GPRMC,3000,A,4849.4517,N,905.6566,E,12,357.36756110192,111110,,,A*6B,0
$GPRMC,3100,A,4849.4519,N,905.6566,E,12,357.36756110192,111110,,,A*6B,0
$GPRMC,3200,A,4849.4521,N,905.6566,E,12,357.36756110192,111110,,,A*6B,0
$GPRMC,3300,A,4849.4524,N,905.6565,E,11,357.36756110192,111110,,,A*6B,0
$GPRMC,3400,A,4849.4526,N,905.6565,E,11,357.36756110192,111110,,,A*6B,0
$GPRMC,3500,A,4849.4528,N,905.6565,E,11,357.36756110192,111110,,,A*6B,0
$GPRMC,3600,A,4849.4530,N,905.6565,E,11,357.36756110192,111110,,,A*6B,0
$GPRMC,3700,A,4849.4533,N,905.6565,E,10,357.36756110192,111110,,,A*6B,0
$GPRMC,3800,A,4849.4535,N,905.6565,E,10,357.36756110192,111110,,,A*6B,0
$GPRMC,3900,A,4849.4537,N,905.6565,E,10,357.36756110192,111110,,,A*6B,0
$GPRMC,4000,A,4849.4539,N,905.6564,E,10,357.36756110192,111110,,,A*6B,0
$GPRMC,4100,A,4849.4541,N,905.6564,E,10,356.955216522638,111110,,,A*6B,0
$GPRMC,4200,A,4849.4543,N,905.6564,E,10,356.955216522638,111110,,,A*6B,0
$GPRMC,4300,A,4849.4544,N,905.6564,E,10,356.955216522638,111110,,,A*6B,0
$GPRMC,4400,A,4849.4546,N,905.6564,E,10,356.955216522638,111110,,,A*6B,0
$GPRMC,4500,A,4849.4547,N,905.6564,E,10,356.955216522638,111110,,,A*6B,0
$GPRMC,4600,A,4849.4549,N,905.6564,E,10,356.955216522638,111110,,,A*6B,0
$GPRMC,4700,A,4849.4551,N,905.6564,E,10,356.955216522638,111110,,,A*6B,0
$GPRMC,4800,A,4849.4552,N,905.6563,E,10,356.955216522638,111110,,,A*6B,0
$GPRMC,4900,A,4849.4554,N,905.6563,E,10,356.955216522638,111110,,,A*6B,0
$GPRMC,5000,A,4849.4555,N,905.6563,E,10,356.955216522638,111110,,,A*6B,0
$GPRMC,5100,A,4849.4557,N,905.6563,E,10,356.955216522638,111110,,,A*6B,0
$GPRMC,5200,A,4849.4558,N,905.6563,E,10,356.955216522638,111110,,,A*6B,0
$GPRMC,5300,A,4849.4560,N,905.6563,E,10,356.955216522638,111110,,,A*6B,0
$GPRMC,5400,A,4849.4561,N,905.6563,E,10,356.955216522638,111110,,,A*6B,0
$GPRMC,5500,A,4849.4563,N,905.6563,E,10,356.955216522638,111110,,,A*6B,0
$GPRMC,5600,A,4849.4564,N,905.6562,E,10,356.955216522638,111110,,,A*6B,0
$GPRMC,5700,A,4849.4566,N,905.6562,E,10,356.955216522638,111110,,,A*6B,0
$GPRMC,5800,A,4849.4567,N,905.6562,E,10,356.955216522638,111110,,,A*6B,0
$GPRMC,5900,A,4849.4569,N,905.6562,E,10,356.955216522638,111110,,,A*6B,0
$GPRMC,6000,A,4849.4570,N,905.6562,E,10,356.955216522638,111110,,,A*6B,0
$GPRMC,6100,A,4849.4572,N,905.6562,E,10,356.955216522638,111110,,,A*6B,0
$GPRMC,6200,A,4849.4573,N,905.6562,E,10,356.955216522638,111110,,,A*6B,0
$GPRMC,6300,A,4849.4575,N,905.6562,E,10,356.955216522638,111110,,,A*6B,0
$GPRMC,6400,A,4849.4576,N,905.6561,E,10,356.955216522638,111110,,,A*6B,0
$GPRMC,6500,A,4849.4578,N,905.6561,E,10,356.955216522638,111110,,,A*6B,0
$GPRMC,6600,A,4849.4579,N,905.6561,E,10,356.955216522638,111110,,,A*6B,0
$GPRMC,6700,A,4849.4581,N,905.6561,E,10,356.955216522638,111110,,,A*6B,0
$GPRMC,6800,A,4849.4582,N,905.6561,E,10,356.955216522638,111110,,,A*6B,0
$GPRMC,6900,A,4849.4584,N,905.6561,E,10,356.955216522638,111110,,,A*6B,0
$GPRMC,7000,A,4849.4585,N,905.6561,E,10,356.955216522638,111110,,,A*6B,0
$GPRMC,7100,A,4849.4587,N,905.6561,E,10,356.955216522638,111110,,,A*6B,0
$GPRMC,7200,A,4849.4588,N,905.6560,E,10,356.955216522638,111110,,,A*6B,0
$GPRMC,7300,A,4849.4590,N,905.6560,E,10,356.955216522638,111110,,,A*6B,0
$GPRMC,7400,A,4849.4591,N,905.6560,E,10,356.955216522638,111110,,,A*6B,0
$GPRMC,7500,A,4849.4593,N,905.6560,E,10,356.955216522638,111110,,,A*6B,0
$GPRMC,7600,A,4849.4594,N,905.6560,E,10,356.955216522638,111110,,,A*6B,0
$GPRMC,7700,A,4849.4596,N,905.6560,E,10,356.955216522638,111110,,,A*6B,0
$GPRMC,7800,A,4849.4597,N,905.6560,E,10,356.955216522638,111110,,,A*6B,0
$GPRMC,7900,A,4849.4599,N,905.6560,E,10,356.955216522638,111110,,,A*6B,0
$GPRMC,8000,A,4849.4600,N,905.6559,E,10,356.955216522638,111110,,,A*6B,0
$GPRMC,8100,A,4849.4602,N,905.6559,E,10,356.955216522638,111110,,,A*6B,0
$GPRMC,8200,A,4849.4603,N,905.6559,E,10,356.955216522638,111110,,,A*6B,0
$GPRMC,8300,A,4849.4605,N,905.6559,E,10,356.955216522638,111110,,,A*6B,0
$GPRMC,8400,A,4849.4606,N,905.6559,E,10,356.955216522638,111110,,,A*6B,0
$GPRMC,8500,A,4849.4608,N,905.6559,E,10,356.955216522638,111110,,,A*6B,0
$GPRMC,8600,A,4849.4609,N,905.6559,E,10,356.955216522638,111110,,,A*6B,0
$GPRMC,8700,A,4849.4611,N,905.6559,E,10,356.955216522638,111110,,,A*6B,0
$GPRMC,8800,A,4849.4612,N,905.6559,E,10,356.955216522638,111110,,,A*6B,0
$GPRMC,8900,A,4849.4614,N,905.6558,E,10,356.955216522638,111110,,,A*6B,0
$GPRMC,9000,A,4849.4615,N,905.6558,E,10,356.955216522638,111110,,,A*6B,0
$GPRMC,9100,A,4849.4617,N,905.6558,E,10,356.955216522638,111110,,,A*6B,0
$GPRMC,9200,A,4849.4618,N,905.6558,E,10,356.955216522638,111110,,,A*6B,0
$GPRMC,9300,A,4849.4620,N,905.6558,E,10,356.955216522638,111110,,,A*6B,0
$GPRMC,9400,A,4849.4622,N,905.6558,E,10,356.955216522638,111110,,,A*6B,0
$GPRMC,9500,A,4849.4623,N,905.6558,E,10,356.955216522638,111110,,,A*6B,0
$GPRMC,9600,A,4849.4625,N,905.6558,E,10,356.955216522638,111110,,,A*6B,0
$GPRMC,9700,A,4849.4626,N,905.6557,E,10,356.955216522638,111110,,,A*6B,0
$GPRMC,9800,A,4849.4628,N,905.6557,E,10,356.955216522638,111110,,,A*6B,0
$GPRMC,9900,A,4849.4629,N,905.6557,E,10,356.955216522638,111110,,,A*6B,0
$GPRMC,10000,A,4849.4631,N,905.6557,E,10,356.955216522638,111110,,,A*6B,0
$GPRMC,10100,A,4849.4632,N,905.6557,E,10,356.955216522638,111110,,,A*6B,0
$GPRMC,10200,A,4849.4634,N,905.6557,E,10,356.955216522638,111110,,,A*6B,0
$GPRMC,10300,A,4849.4635,N,905.6557,E,10,356.955216522638,111110,,,A*6B,0
$GPRMC,10400,A,4849.4637,N,905.6557,E,10,356.955216522638,111110,,,A*6B,0
$GPRMC,10500,A,4849.4638,N,905.6556,E,10,356.955216522638,111110,,,A*6B,0
$GPRMC,10600,A,4849.4640,N,905.6556,E,10,356.955216522638,111110,,,A*6B,0
$GPRMC,10700,A,4849.4641,N,905.6556,E,10,356.423658586423,111110,,,A*6B,0
$GPRMC,10800,A,4849.4643,N,905.6556,E,10,356.423658586423,111110,,,A*6B,0
$GPRMC,10900,A,4849.4644,N,905.6556,E,10,356.423658586423,111110,,,A*6B,0
$GPRMC,11000,A,4849.4646,N,905.6556,E,10,356.423658586423,111110,,,A*6B,0
$GPRMC,11100,A,4849.4647,N,905.6556,E,10,356.423658586423,111110,,,A*6B,0
$GPRMC,11200,A,4849.4649,N,905.6555,E,10,356.423658586423,111110,,,A*6B,0
$GPRMC,11300,A,4849.4650,N,905.6555,E,10,356.423658586423,111110,,,A*6B,0
$GPRMC,11400,A,4849.4652,N,905.6555,E,10,356.423658586423,111110,,,A*6B,0
$GPRMC,11500,A,4849.4653,N,905.6555,E,10,356.423658586423,111110,,,A*6B,0
$GPRMC,11600,A,4849.4655,N,905.6555,E,10,356.423658586423,111110,,,A*6B,0
$GPRMC,11700,A,4849.4656,N,905.6555,E,10,356.423658586423,111110,,,A*6B,0
$GPRMC,11800,A,4849.4658,N,905.6555,E,10,356.423658586423,111110,,,A*6B,0
$GPRMC,11900,A,4849.4659,N,905.6554,E,10,356.423658586423,111110,,,A*6B,0
$GPRMC,12000,A,4849.4661,N,905.6554,E,10,356.423658586423,111110,,,A*6B,0
$GPRMC,12100,A,4849.4662,N,905.6554,E,10,356.423658586423,111110,,,A*6B,0
$GPRMC,12200,A,4849.4664,N,905.6554,E,10,356.423658586423,111110,,,A*6B,0
$GPRMC,12300,A,4849.4665,N,905.6554,E,10,356.423658586423,111110,,,A*6B,0
$GPRMC,12400,A,4849.4667,N,905.6554,E,10,356.423658586423,111110,,,A*6B,0
$GPRMC,12500,A,4849.4668,N,905.6554,E,10,356.423658586423,111110,,,A*6B,0
$GPRMC,12600,A,4849.4670,N,905.6553,E,10,356.423658586423,111110,,,A*6B,0
$GPRMC,12700,A,4849.4671,N,905.6553,E,10,356.423658586423,111110,,,A*6B,0
$GPRMC,12800,A,4849.4673,N,905.6553,E,10,356.423658586423,111110,,,A*6B,0
$GPRMC,12900,A,4849.4674,N,905.6553,E,10,356.423658586423,111110,,,A*6B,0
$GPRMC,13000,A,4849.4676,N,905.6553,E,10,356.423658586423,111110,,,A*6B,0
$GPRMC,13100,A,4849.4677,N,905.6553,E,10,356.423658586423,111110,,,A*6B,0
$GPRMC,13200,A,4849.4679,N,905.6553,E,10,356.423658586423,111110,,,A*6B,0
$GPRMC,13300,A,4849.4680,N,905.6552,E,10,356.423658586423,111110,,,A*6B,0
$GPRMC,13400,A,4849.4682,N,905.6552,E,10,356.423658586423,111110,,,A*6B,0
$GPRMC,13500,A,4849.4683,N,905.6552,E,10,356.423658586423,111110,,,A*6B,0
$GPRMC,13600,A,4849.4685,N,905.6552,E,10,356.423658586423,111110,,,A*6B,0
$GPRMC,13700,A,4849.4686,N,905.6552,E,10,356.423658586423,111110,,,A*6B,0
$GPRMC,13800,A,4849.4688,N,905.6552,E,10,356.423658586423,111110,,,A*6B,0
$GPRMC,13900,A,4849.4689,N,905.6552,E,10,356.423658586423,111110,,,A*6B,0
$GPRMC,14000,A,4849.4691,N,905.6551,E,10,356.423658586423,111110,,,A*6B,0
$GPRMC,14100,A,4849.4692,N,905.6551,E,10,356.423658586423,111110,,,A*6B,0
$GPRMC,14200,A,4849.4694,N,905.6551,E,10,356.423658586423,111110,,,A*6B,0
$GPRMC,14300,A,4849.4695,N,905.6551,E,10,356.423658586423,111110,,,A*6B,0
$GPRMC,14400,A,4849.4697,N,905.6551,E,10,356.423658586423,111110,,,A*6B,0
$GPRMC,14500,A,4849.4698,N,905.6551,E,10,356.423658586423,111110,,,A*6B,0
$GPRMC,14600,A,4849.4700,N,905.6551,E,10,356.423658586423,111110,,,A*6B,0
$GPRMC,14700,A,4849.4701,N,905.6550,E,10,356.423658586423,111110,,,A*6B,0
$GPRMC,14800,A,4849.4703,N,905.6550,E,10,356.423658586423,111110,,,A*6B,0
$GPRMC,14900,A,4849.4704,N,905.6550,E,10,356.423658586423,111110,,,A*6B,0
$GPRMC,15000,A,4849.4706,N,905.6550,E,10,356.423658586423,111110,,,A*6B,0
$GPRMC,15100,A,4849.4707,N,905.6550,E,10,356.423658586423,111110,,,A*6B,0
$GPRMC,15200,A,4849.4709,N,905.6550,E,10,356.423658586423,111110,,,A*6B,0
$GPRMC,15300,A,4849.4710,N,905.6550,E,10,356.423658586423,111110,,,A*6B,0
$GPRMC,15400,A,4849.4712,N,905.6549,E,10,356.423658586423,111110,,,A*6B,0
$GPRMC,15500,A,4849.4713,N,905.6549,E,10,356.423658586423,111110,,,A*6B,0
$GPRMC,15600,A,4849.4715,N,905.6549,E,10,356.423658586423,111110,,,A*6B,0
$GPRMC,15700,A,4849.4716,N,905.6549,E,10,356.423658586423,111110,,,A*6B,0
$GPRMC,15800,A,4849.4718,N,905.6549,E,10,356.423658586423,111110,,,A*6B,0
$GPRMC,15900,A,4849.4719,N,905.6549,E,10,356.423658586423,111110,,,A*6B,0
$GPRMC,16000,A,4849.4721,N,905.6549,E,10,356.423658586423,111110,,,A*6B,0
$GPRMC,16100,A,4849.4722,N,905.6548,E,10,356.423658586423,111110,,,A*6B,0
$GPRMC,16200,A,4849.4724,N,905.6548,E,10,356.423658586423,111110,,,A*6B,0
$GPRMC,16300,A,4849.4725,N,905.6548,E,10,356.423658586423,111110,,,A*6B,0
$GPRMC,16400,A,4849.4727,N,905.6548,E,10,356.423658586423,111110,,,A*6B,0
$GPRMC,16500,A,4849.4728,N,905.6548,E,10,356.423658586423,111110,,,A*6B,0
$GPRMC,16600,A,4849.4730,N,905.6548,E,10,356.423658586423,111110,,,A*6B,0
$GPRMC,16700,A,4849.4731,N,905.6548,E,10,356.423658586423,111110,,,A*6B,0
$GPRMC,16800,A,4849.4733,N,905.6547,E,10,356.423658586423,111110,,,A*6B,0
$GPRMC,16900,A,4849.4734,N,905.6547,E,10,356.423658586423,111110,,,A*6B,0
$GPRMC,17000,A,4849.4736,N,905.6547,E,10,356.423658586423,111110,,,A*6B,0
$GPRMC,17100,A,4849.4737,N,905.6547,E,10,356.423658586423,111110,,,A*6B,0
$GPRMC,17200,A,4849.4739,N,905.6547,E,10,356.423658586423,111110,,,A*6B,0
$GPRMC,17300,A,4849.4740,N,905.6547,E,10,356.423658586423,111110,,,A*6B,0
$GPRMC,17400,A,4849.4742,N,905.6547,E,10,356.423658586423,111110,,,A*6B,0
$GPRMC,17500,A,4849.4743,N,905.6546,E,10,356.423658586423,111110,,,A*6B,0
$GPRMC,17600,A,4849.4745,N,905.6546,E,10,356.423658586423,111110,,,A*6B,0
$GPRMC,17700,A,4849.4746,N,905.6546,E,10,356.423658586423,111110,,,A*6B,0
$GPRMC,17800,A,4849.4748,N,905.6546,E,10,356.423658586423,111110,,,A*6B,0
$GPRMC,17900,A,4849.4749,N,905.6546,E,10,356.423658586423,111110,,,A*6B,0
$GPRMC,18000,A,4849.4751,N,905.6546,E,10,356.423658586423,111110,,,A*6B,0
$GPRMC,18100,A,4849.4752,N,905.6546,E,10,356.423658586423,111110,,,A*6B,0
$GPRMC,18200,A,4849.4754,N,905.6545,E,10,356.423658586423,111110,,,A*6B,0
$GPRMC,18300,A,4849.4755,N,905.6545,E,10,356.423658586423,111110,,,A*6B,0
$GPRMC,18400,A,4849.4757,N,905.6545,E,10,356.423658586423,111110,,,A*6B,0
$GPRMC,18500,A,4849.4758,N,905.6545,E,10,356.423658586423,111110,,,A*6B,0
$GPRMC,18600,A,4849.4760,N,905.6545,E,10,356.516721491053,111110,,,A*6B,0
$GPRMC,18700,A,4849.4761,N,905.6545,E,10,356.516721491053,111110,,,A*6B,0
$GPRMC,18800,A,4849.4763,N,905.6545,E,10,356.516721491053,111110,,,A*6B,0
$GPRMC,18900,A,4849.4764,N,905.6545,E,10,356.516721491053,111110,,,A*6B,0
$GPRMC,19000,A,4849.4766,N,905.6544,E,10,356.516721491053,111110,,,A*6B,0
$GPRMC,19100,A,4849.4767,N,905.6544,E,10,356.516721491053,111110,,,A*6B,0
$GPRMC,19200,A,4849.4769,N,905.6544,E,10,356.516721491053,111110,,,A*6B,0
$GPRMC,19300,A,4849.4770,N,905.6544,E,10,356.516721491053,111110,,,A*6B,0
$GPRMC,19400,A,4849.4772,N,905.6544,E,10,356.516721491053,111110,,,A*6B,0
$GPRMC,19500,A,4849.4773,N,905.6544,E,10,356.516721491053,111110,,,A*6B,0
$GPRMC,19600,A,4849.4775,N,905.6544,E,10,356.516721491053,111110,,,A*6B,0
$GPRMC,19700,A,4849.4776,N,905.6543,E,10,356.516721491053,111110,,,A*6B,0
$GPRMC,19800,A,4849.4778,N,905.6543,E,10,356.516721491053,111110,,,A*6B,0
$GPRMC,19900,A,4849.4779,N,905.6543,E,10,356.516721491053,111110,,,A*6B,0
$GPRMC,20000,A,4849.4781,N,905.6543,E,10,356.516721491053,111110,,,A*6B,0
$GPRMC,20100,A,4849.4782,N,905.6543,E,10,356.516721491053,111110,,,A*6B,0
$GPRMC,20200,A,4849.4784,N,905.6543,E,10,356.516721491053,111110,,,A*6B,0
$GPRMC,20300,A,4849.4785,N,905.6543,E,10,356.516721491053,111110,,,A*6B,0
$GPRMC,20400,A,4849.4787,N,905.6542,E,10,356.516721491053,111110,,,A*6B,0
$GPRMC,20500,A,4849.4788,N,905.6542,E,10,356.516721491053,111110,,,A*6B,0
$GPRMC,20600,A,4849.4790,N,905.6542,E,10,356.516721491053,111110,,,A*6B,0
$GPRMC,20700,A,4849.4791,N,905.6542,E,10,356.516721491053,111110,,,A*6B,0
$GPRMC,20800,A,4849.4793,N,905.6542,E,10,356.516721491053,111110,,,A*6B,0
$GPRMC,20900,A,4849.4794,N,905.6542,E,10,356.516721491053,111110,,,A*6B,0
$GPRMC,21000,A,4849.4796,N,905.6542,E,10,356.516721491053,111110,,,A*6B,0
$GPRMC,21100,A,4849.4797,N,905.6541,E,10,356.516721491053,111110,,,A*6B,0
$GPRMC,21200,A,4849.4799,N,905.6541,E,10,356.516721491053,111110,,,A*6B,0
$GPRMC,21300,A,4849.4800,N,905.6541,E,10,356.516721491053,111110,,,A*6B,0
$GPRMC,21400,A,4849.4802,N,905.6541,E,10,356.516721491053,111110,,,A*6B,0
$GPRMC,21500,A,4849.4803,N,905.6541,E,10,356.516721491053,111110,,,A*6B,0
$GPRMC,21600,A,4849.4805,N,905.6541,E,10,356.516721491053,111110,,,A*6B,0
$GPRMC,21700,A,4849.4806,N,905.6541,E,10,356.516721491053,111110,,,A*6B,0
$GPRMC,21800,A,4849.4808,N,905.6540,E,10,356.516721491053,111110,,,A*6B,0
$GPRMC,21900,A,4849.4809,N,905.6540,E,10,356.516721491053,111110,,,A*6B,0
$GPRMC,22000,A,4849.4811,N,905.6540,E,10,356.516721491053,111110,,,A*6B,0
$GPRMC,22100,A,4849.4812,N,905.6540,E,10,356.516721491053,111110,,,A*6B,0
$GPRMC,22200,A,4849.4814,N,905.6540,E,10,356.516721491053,111110,,,A*6B,0
$GPRMC,22300,A,4849.4815,N,905.6540,E,10,356.516721491053,111110,,,A*6B,0
$GPRMC,22400,A,4849.4817,N,905.6540,E,10,356.516721491053,111110,,,A*6B,0
$GPRMC,22500,A,4849.4818,N,905.6540,E,10,356.516721491053,111110,,,A*6B,0
$GPRMC,22600,A,4849.4820,N,905.6539,E,10,356.516721491053,111110,,,A*6B,0
$GPRMC,22700,A,4849.4821,N,905.6539,E,10,356.516721491053,111110,,,A*6B,0
$GPRMC,22800,A,4849.4823,N,905.6539,E,10,356.516721491053,111110,,,A*6B,0
$GPRMC,22900,A,4849.4824,N,905.6539,E,10,356.516721491053,111110,,,A*6B,0
$GPRMC,23000,A,4849.4826,N,905.6539,E,10,356.516721491053,111110,,,A*6B,0
$GPRMC,23100,A,4849.4827,N,905.6539,E,10,356.516721491053,111110,,,A*6B,0
$GPRMC,23200,A,4849.4829,N,905.6539,E,10,356.516721491053,111110,,,A*6B,0
$GPRMC,23300,A,4849.4830,N,905.6538,E,10,356.516721491053,111110,,,A*6B,0
$GPRMC,23400,A,4849.4832,N,905.6538,E,10,356.516721491053,111110,,,A*6B,0
$GPRMC,23500,A,4849.4833,N,905.6538,E,10,356.516721491053,111110,,,A*6B,0
$GPRMC,23600,A,4849.4835,N,905.6538,E,10,356.516721491053,111110,,,A*6B,0
$GPRMC,23700,A,4849.4836,N,905.6538,E,10,356.516721491053,111110,,,A*6B,0
$GPRMC,23800,A,4849.4838,N,905.6538,E,10,356.516721491053,111110,,,A*6B,0
$GPRMC,23900,A,4849.4840,N,905.6538,E,10,356.516721491053,111110,,,A*6B,0
$GPRMC,24000,A,4849.4841,N,905.6537,E,10,356.516721491053,111110,,,A*6B,0
$GPRMC,24100,A,4849.4843,N,905.6537,E,10,356.516721491053,111110,,,A*6B,0
$GPRMC,24200,A,4849.4844,N,905.6537,E,10,356.516721491053,111110,,,A*6B,0
$GPRMC,24300,A,4849.4846,N,905.6537,E,10,356.516721491053,111110,,,A*6B,0
$GPRMC,24400,A,4849.4847,N,905.6537,E,10,356.516721491053,111110,,,A*6B,0
$GPRMC,24500,A,4849.4849,N,905.6537,E,10,356.516721491053,111110,,,A*6B,0
$GPRMC,24600,A,4849.4850,N,905.6537,E,10,356.516721491053,111110,,,A*6B,0
$GPRMC,24700,A,4849.4852,N,905.6536,E,10,356.516721491053,111110,,,A*6B,0
$GPRMC,24800,A,4849.4853,N,905.6536,E,10,356.516721491053,111110,,,A*6B,0
$GPRMC,24900,A,4849.4855,N,905.6536,E,10,356.516721491053,111110,,,A*6B,0
$GPRMC,25000,A,4849.4856,N,905.6536,E,10,356.516721491053,111110,,,A*6B,0
$GPRMC,25100,A,4849.4858,N,905.6536,E,10,356.516721491053,111110,,,A*6B,0
$GPRMC,25200,A,4849.4859,N,905.6536,E,10,356.516721491053,111110,,,A*6B,0
$GPRMC,25300,A,4849.4861,N,905.6536,E,10,356.516721491053,111110,,,A*6B,0
$GPRMC,25400,A,4849.4862,N,905.6535,E,10,356.516721491053,111110,,,A*6B,0
$GPRMC,25500,A,4849.4864,N,905.6535,E,10,356.516721491053,111110,,,A*6B,0
$GPRMC,25600,A,4849.4865,N,905.6535,E,10,356.516721491053,111110,,,A*6B,0
$GPRMC,25700,A,4849.4867,N,905.6535,E,10,356.516721491053,111110,,,A*6B,0
$GPRMC,25800,A,4849.4868,N,905.6535,E,10,356.516721491053,111110,,,A*6B,0
$GPRMC,25900,A,4849.4870,N,905.6535,E,10,356.516721491053,111110,,,A*6B,0
$GPRMC,26000,A,4849.4871,N,905.6535,E,10,356.516721491053,111110,,,A*6B,0
$GPRMC,26100,A,4849.4873,N,905.6534,E,10,356.516721491053,111110,,,A*6B,0
$GPRMC,26200,A,4849.4874,N,905.6534,E,10,356.516721491053,111110,,,A*6B,0
$GPRMC,26300,A,4849.4876,N,905.6534,E,10,356.516721491053,111110,,,A*6B,0
$GPRMC,26400,A,4849.4877,N,905.6534,E,10,356.516721491053,111110,,,A*6B,0
$GPRMC,26500,A,4849.4879,N,905.6534,E,10,356.516721491053,111110,,,A*6B,0
$GPRMC,26600,A,4849.4880,N,905.6534,E,10,356.516721491053,111110,,,A*6B,0
$GPRMC,26700,A,4849.4882,N,905.6534,E,10,356.51672149074,111110,,,A*6B,0
$GPRMC,26800,A,4849.4883,N,905.6534,E,10,356.51672149074,111110,,,A*6B,0
$GPRMC,26900,A,4849.4885,N,905.6533,E,10,356.51672149074,111110,,,A*6B,0
$GPRMC,27000,A,4849.4886,N,905.6533,E,10,356.51672149074,111110,,,A*6B,0
$GPRMC,27100,A,4849.4888,N,905.6533,E,10,356.51672149074,111110,,,A*6B,0
$GPRMC,27200,A,4849.4889,N,905.6533,E,10,356.51672149074,111110,,,A*6B,0
$GPRMC,27300,A,4849.4891,N,905.6533,E,10,356.51672149074,111110,,,A*6B,0
$GPRMC,27400,A,4849.4892,N,905.6533,E,10,356.51672149074,111110,,,A*6B,0
$GPRMC,27500,A,4849.4894,N,905.6533,E,10,356.51672149074,111110,,,A*6B,0
$GPRMC,27600,A,4849.4895,N,905.6532,E,10,356.51672149074,111110,,,A*6B,0
$GPRMC,27700,A,4849.4897,N,905.6532,E,10,356.51672149074,111110,,,A*6B,0
$GPRMC,27800,A,4849.4898,N,905.6532,E,10,356.51672149074,111110,,,A*6B,0
$GPRMC,27900,A,4849.4900,N,905.6532,E,10,356.51672149074,111110,,,A*6B,0
$GPRMC,28000,A,4849.4901,N,905.6532,E,10,356.51672149074,111110,,,A*6B,0
$GPRMC,28100,A,4849.4903,N,905.6532,E,10,356.51672149074,111110,,,A*6B,0
$GPRMC,28200,A,4849.4904,N,905.6532,E,10,356.51672149074,111110,,,A*6B,0
$GPRMC,28300,A,4849.4906,N,905.6531,E,10,356.51672149074,111110,,,A*6B,0
$GPRMC,28400,A,4849.4907,N,905.6531,E,10,356.51672149074,111110,,,A*6B,0
$GPRMC,28500,A,4849.4909,N,905.6531,E,10,356.51672149074,111110,,,A*6B,0
$GPRMC,28600,A,4849.4910,N,905.6531,E,10,356.51672149074,111110,,,A*6B,0
$GPRMC,28700,A,4849.4912,N,905.6531,E,10,356.51672149074,111110,,,A*6B,0
$GPRMC,28800,A,4849.4913,N,905.6531,E,10,356.51672149074,111110,,,A*6B,0
$GPRMC,28900,A,4849.4915,N,905.6531,E,10,356.51672149074,111110,,,A*6B,0
$GPRMC,29000,A,4849.4916,N,905.6530,E,10,356.51672149074,111110,,,A*6B,0
$GPRMC,29100,A,4849.4918,N,905.6530,E,10,356.51672149074,111110,,,A*6B,0
$GPRMC,29200,A,4849.4919,N,905.6530,E,10,356.51672149074,111110,,,A*6B,0
$GPRMC,29300,A,4849.4921,N,905.6530,E,10,356.51672149074,111110,,,A*6B,0
$GPRMC,29400,A,4849.4922,N,905.6530,E,10,356.51672149074,111110,,,A*6B,0
$GPRMC,29500,A,4849.4924,N,905.6530,E,10,356.51672149074,111110,,,A*6B,0
$GPRMC,29600,A,4849.4925,N,905.6530,E,10,356.51672149074,111110,,,A*6B,0
$GPRMC,29700,A,4849.4927,N,905.6529,E,10,356.51672149074,111110,,,A*6B,0
$GPRMC,29800,A,4849.4928,N,905.6529,E,10,356.51672149074,111110,,,A*6B,0
$GPRMC,29900,A,4849.4930,N,905.6529,E,10,356.51672149074,111110,,,A*6B,0
$GPRMC,30000,A,4849.4931,N,905.6529,E,10,356.51672149074,111110,,,A*6B,0
$GPRMC,30100,A,4849.4933,N,905.6529,E,10,356.51672149074,111110,,,A*6B,0
$GPRMC,30200,A,4849.4934,N,905.6529,E,10,356.51672149074,111110,,,A*6B,0
$GPRMC,30300,A,4849.4936,N,905.6529,E,10,356.51672149074,111110,,,A*6B,0
$GPRMC,30400,A,4849.4937,N,905.6529,E,10,356.51672149074,111110,,,A*6B,0
$GPRMC,30500,A,4849.4939,N,905.6528,E,10,356.51672149074,111110,,,A*6B,0
$GPRMC,30600,A,4849.4940,N,905.6528,E,10,356.51672149074,111110,,,A*6B,0
$GPRMC,30700,A,4849.4942,N,905.6528,E,10,356.51672149074,111110,,,A*6B,0
$GPRMC,30800,A,4849.4943,N,905.6528,E,10,356.51672149074,111110,,,A*6B,0
$GPRMC,30900,A,4849.4945,N,905.6528,E,10,356.51672149074,111110,,,A*6B,0
$GPRMC,31000,A,4849.4946,N,905.6528,E,10,356.51672149074,111110,,,A*6B,0
$GPRMC,31100,A,4849.4948,N,905.6528,E,10,356.51672149074,111110,,,A*6B,0
$GPRMC,31200,A,4849.4949,N,905.6527,E,10,356.51672149074,111110,,,A*6B,0
$GPRMC,31300,A,4849.4951,N,905.6527,E,10,356.51672149074,111110,,,A*6B,0
$GPRMC,31400,A,4849.4952,N,905.6527,E,10,356.51672149074,111110,,,A*6B,0
$GPRMC,31500,A,4849.4954,N,905.6527,E,10,356.51672149074,111110,,,A*6B,0
$GPRMC,31600,A,4849.4955,N,905.6527,E,10,356.51672149074,111110,,,A*6B,0
$GPRMC,31700,A,4849.4957,N,905.6527,E,10,356.51672149074,111110,,,A*6B,0
$GPRMC,31800,A,4849.4958,N,905.6527,E,10,356.51672149074,111110,,,A*6B,0
$GPRMC,31900,A,4849.4960,N,905.6526,E,10,356.51672149074,111110,,,A*6B,0
$GPRMC,32000,A,4849.4961,N,905.6526,E,10,356.51672149074,111110,,,A*6B,0
$GPRMC,32100,A,4849.4963,N,905.6526,E,10,356.51672149074,111110,,,A*6B,0
$GPRMC,32200,A,4849.4964,N,905.6526,E,10,356.51672149074,111110,,,A*6B,0
$GPRMC,32300,A,4849.4966,N,905.6526,E,10,356.51672149074,111110,,,A*6B,0
$GPRMC,32400,A,4849.4967,N,905.6526,E,10,356.51672149074,111110,,,A*6B,0
$GPRMC,32500,A,4849.4969,N,905.6526,E,10,356.51672149074,111110,,,A*6B,0
$GPRMC,32600,A,4849.4970,N,905.6525,E,10,356.51672149074,111110,,,A*6B,0
$GPRMC,32700,A,4849.4972,N,905.6525,E,10,356.51672149074,111110,,,A*6B,0
$GPRMC,32800,A,4849.4973,N,905.6525,E,10,356.51672149074,111110,,,A*6B,0
$GPRMC,32900,A,4849.4975,N,905.6525,E,10,356.51672149074,111110,,,A*6B,0
$GPRMC,33000,A,4849.4976,N,905.6525,E,10,356.51672149074,111110,,,A*6B,0
$GPRMC,33100,A,4849.4978,N,905.6525,E,10,356.51672149074,111110,,,A*6B,0
$GPRMC,33200,A,4849.4979,N,905.6525,E,10,356.51672149074,111110,,,A*6B,0
$GPRMC,33300,A,4849.4981,N,905.6524,E,10,356.51672149074,111110,,,A*6B,0
$GPRMC,33400,A,4849.4982,N,905.6524,E,10,356.51672149074,111110,,,A*6B,0
$GPRMC,33500,A,4849.4984,N,905.6524,E,10,356.51672149074,111110,,,A*6B,0
$GPRMC,33600,A,4849.4985,N,905.6524,E,10,356.51672149074,111110,,,A*6B,0
$GPRMC,33700,A,4849.4987,N,905.6524,E,10,356.51672149074,111110,,,A*6B,0
$GPRMC,33800,A,4849.4988,N,905.6524,E,10,356.51672149074,111110,,,A*6B,0
$GPRMC,33900,A,4849.4990,N,905.6524,E,10,356.51672149074,111110,,,A*6B,0
$GPRMC,34000,A,4849.4991,N,905.6524,E,10,356.51672149074,111110,,,A*6B,0
$GPRMC,34100,A,4849.4993,N,905.6523,E,10,356.51672149074,111110,,,A*6B,0
$GPRMC,34200,A,4849.4994,N,905.6523,E,10,356.51672149074,111110,,,A*6B,0
$GPRMC,34300,A,4849.4996,N,905.6523,E,10,356.51672149074,111110,,,A*6B,0
$GPRMC,34400,A,4849.4997,N,905.6523,E,10,356.51672149074,111110,,,A*6B,0
$GPRMC,34500,A,4849.4999,N,905.6523,E,10,356.51672149074,111110,,,A*6B,0
$GPRMC,34600,A,4849.5000,N,905.6523,E,10,356.51672149074,111110,,,A*6B,0
$GPRMC,34700,A,4849.5002,N,905.6523,E,10,356.51672149074,111110,,,A*6B,0
$GPRMC,34800,A,4849.5003,N,905.6522,E,10,356.605069416545,111110,,,A*6B,0
$GPRMC,34900,A,4849.5005,N,905.6522,E,10,356.605069416545,111110,,,A*6B,0
$GPRMC,35000,A,4849.5006,N,905.6522,E,10,356.605069416545,111110,,,A*6B,0
$GPRMC,35100,A,4849.5008,N,905.6522,E,10,356.605069416545,111110,,,A*6B,0
$GPRMC,35200,A,4849.5009,N,905.6522,E,10,356.605069416545,111110,,,A*6B,0
$GPRMC,35300,A,4849.5011,N,905.6522,E,10,356.605069416545,111110,,,A*6B,0
$GPRMC,35400,A,4849.5012,N,905.6522,E,10,356.605069416545,111110,,,A*6B,0
$GPRMC,35500,A,4849.5014,N,905.6521,E,10,356.605069416545,111110,,,A*6B,0
$GPRMC,35600,A,4849.5015,N,905.6521,E,10,356.605069416545,111110,,,A*6B,0
$GPRMC,35700,A,4849.5017,N,905.6521,E,10,356.605069416545,111110,,,A*6B,0
$GPRMC,35800,A,4849.5018,N,905.6521,E,10,356.605069416545,111110,,,A*6B,0
$GPRMC,35900,A,4849.5020,N,905.6521,E,10,356.605069416545,111110,,,A*6B,0
$GPRMC,36000,A,4849.5021,N,905.6521,E,10,356.605069416545,111110,,,A*6B,0
$GPRMC,36100,A,4849.5023,N,905.6521,E,10,356.605069416545,111110,,,A*6B,0
$GPRMC,36200,A,4849.5025,N,905.6521,E,10,356.605069416545,111110,,,A*6B,0
$GPRMC,36300,A,4849.5026,N,905.6520,E,10,356.605069416545,111110,,,A*6B,0
$GPRMC,36400,A,4849.5028,N,905.6520,E,10,356.605069416545,111110,,,A*6B,0
$GPRMC,36500,A,4849.5029,N,905.6520,E,10,356.605069416545,111110,,,A*6B,0
$GPRMC,36600,A,4849.5031,N,905.6520,E,10,356.605069416545,111110,,,A*6B,0
$GPRMC,36700,A,4849.5032,N,905.6520,E,10,356.605069416545,111110,,,A*6B,0
$GPRMC,36800,A,4849.5034,N,905.6520,E,10,356.605069416545,111110,,,A*6B,0
$GPRMC,36900,A,4849.5035,N,905.6520,E,10,356.605069416545,111110,,,A*6B,0
$GPRMC,37000,A,4849.5037,N,905.6519,E,10,356.605069416545,111110,,,A*6B,0
$GPRMC,37100,A,4849.5038,N,905.6519,E,10,356.605069416545,111110,,,A*6B,0
$GPRMC,37200,A,4849.5040,N,905.6519,E,10,356.605069416545,111110,,,A*6B,0
$GPRMC,37300,A,4849.5041,N,905.6519,E,10,356.605069416545,111110,,,A*6B,0
$GPRMC,37400,A,4849.5043,N,905.6519,E,10,356.605069416545,111110,,,A*6B,0
$GPRMC,37500,A,4849.5044,N,905.6519,E,10,356.605069416545,111110,,,A*6B,0
$GPRMC,37600,A,4849.5046,N,905.6519,E,10,356.605069416545,111110,,,A*6B,0
$GPRMC,37700,A,4849.5047,N,905.6518,E,10,356.605069416545,111110,,,A*6B,0
$GPRMC,37800,A,4849.5049,N,905.6518,E,10,356.605069416545,111110,,,A*6B,0
$GPRMC,37900,A,4849.5050,N,905.6518,E,10,356.605069416545,111110,,,A*6B,0
$GPRMC,38000,A,4849.5052,N,905.6518,E,10,356.605069416545,111110,,,A*6B,0
$GPRMC,38100,A,4849.5053,N,905.6518,E,10,356.605069416545,111110,,,A*6B,0
$GPRMC,38200,A,4849.5055,N,905.6518,E,10,356.605069416545,111110,,,A*6B,0
$GPRMC,38300,A,4849.5056,N,905.6518,E,10,356.605069416545,111110,,,A*6B,0
$GPRMC,38400,A,4849.5058,N,905.6518,E,10,356.605069416545,111110,,,A*6B,0
$GPRMC,38500,A,4849.5059,N,905.6517,E,10,356.605069416545,111110,,,A*6B,0
$GPRMC,38600,A,4849.5061,N,905.6517,E,10,356.605069416545,111110,,,A*6B,0
$GPRMC,38700,A,4849.5062,N,905.6517,E,10,356.605069416545,111110,,,A*6B,0
$GPRMC,38800,A,4849.5064,N,905.6517,E,10,356.605069416545,111110,,,A*6B,0
$GPRMC,38900,A,4849.5065,N,905.6517,E,10,356.605069416545,111110,,,A*6B,0
$GPRMC,39000,A,4849.5067,N,905.6517,E,10,356.605069416545,111110,,,A*6B,0
$GPRMC,39100,A,4849.5068,N,905.6517,E,10,356.605069416545,111110,,,A*6B,0
$GPRMC,39200,A,4849.5070,N,905.6516,E,10,356.605069416545,111110,,,A*6B,0
$GPRMC,39300,A,4849.5071,N,905.6516,E,10,356.605069416545,111110,,,A*6B,0
$GPRMC,39400,A,4849.5073,N,905.6516,E,10,356.605069416545,111110,,,A*6B,0
$GPRMC,39500,A,4849.5074,N,905.6516,E,10,356.605069416545,111110,,,A*6B,0
$GPRMC,39600,A,4849.5076,N,905.6516,E,10,356.605069416545,111110,,,A*6B,0
$GPRMC,39700,A,4849.5077,N,905.6516,E,10,356.605069416545,111110,,,A*6B,0
$GPRMC,39800,A,4849.5079,N,905.6516,E,10,356.605069416545,111110,,,A*6B,0
$GPRMC,39900,A,4849.5080,N,905.6515,E,10,356.605069416545,111110,,,A*6B,0
$GPRMC,40000,A,4849.5082,N,905.6515,E,10,356.605069416545,111110,,,A*6B,0
$GPRMC,40100,A,4849.5083,N,905.6515,E,10,356.605069416545,111110,,,A*6B,0
$GPRMC,40200,A,4849.5085,N,905.6515,E,10,356.605069416545,111110,,,A*6B,0
$GPRMC,40300,A,4849.5086,N,905.6515,E,10,356.605069416545,111110,,,A*6B,0
$GPRMC,40400,A,4849.5088,N,905.6515,E,10,356.605069416545,111110,,,A*6B,0
$GPRMC,40500,A,4849.5089,N,905.6515,E,10,356.605069416545,111110,,,A*6B,0
$GPRMC,40600,A,4849.5091,N,905.6515,E,10,356.605069416545,111110,,,A*6B,0
$GPRMC,40700,A,4849.5092,N,905.6514,E,10,356.605069416545,111110,,,A*6B,0
$GPRMC,40800,A,4849.5094,N,905.6514,E,10,356.605069416545,111110,,,A*6B,0
$GPRMC,40900,A,4849.5095,N,905.6514,E,10,356.605069416545,111110,,,A*6B,0
$GPRMC,41000,A,4849.5097,N,905.6514,E,10,356.605069416545,111110,,,A*6B,0
$GPRMC,41100,A,4849.5098,N,905.6514,E,10,356.605069416545,111110,,,A*6B,0
$GPRMC,41200,A,4849.5100,N,905.6514,E,10,356.605069416545,111110,,,A*6B,0
$GPRMC,41300,A,4849.5101,N,905.6514,E,10,356.605069416545,111110,,,A*6B,0
$GPRMC,41400,A,4849.5103,N,905.6513,E,10,356.605069416545,111110,,,A*6B,0
$GPRMC,41500,A,4849.5104,N,905.6513,E,10,356.605069416545,111110,,,A*6B,0
$GPRMC,41600,A,4849.5106,N,905.6513,E,10,356.605069416545,111110,,,A*6B,0
$GPRMC,41700,A,4849.5107,N,905.6513,E,10,356.605069416545,111110,,,A*6B,0
$GPRMC,41800,A,4849.5109,N,905.6513,E,10,356.605069416545,111110,,,A*6B,0
$GPRMC,41900,A,4849.5110,N,905.6513,E,10,356.605069416545,111110,,,A*6B,0
$GPRMC,42000,A,4849.5112,N,905.6513,E,10,356.605069416545,111110,,,A*6B,0
$GPRMC,42100,A,4849.5113,N,905.6512,E,10,356.605069416545,111110,,,A*6B,0
$GPRMC,42200,A,4849.5115,N,905.6512,E,10,356.605069416545,111110,,,A*6B,0
$GPRMC,42300,A,4849.5116,N,905.6512,E,10,356.605069416545,111110,,,A*6B,0
$GPRMC,42400,A,4849.5118,N,905.6512,E,10,356.605069416545,111110,,,A*6B,0
$GPRMC,42500,A,4849.5119,N,905.6512,E,10,356.605069416545,111110,,,A*6B,0
$GPRMC,42600,A,4849.5121,N,905.6512,E,10,356.605069416545,111110,,,A*6B,0
$GPRMC,42700,A,4849.5123,N,905.6512,E,10,356.605069416545,111110,,,A*6B,0
$GPRMC,42800,A,4849.5124,N,905.6512,E,10,356.605069416545,111110,,,A*6B,0
$GPRMC,42900,A,4849.5126,N,905.6511,E,10,356.605069416545,111110,,,A*6B,0
$GPRMC,43000,A,4849.5127,N,905.6511,E,10,356.605069416545,111110,,,A*6B,0
$GPRMC,43100,A,4849.5128,N,905.6511,E,10,84.3455801673786,111110,,,A*6B,0
$GPRMC,43200,A,4849.5129,N,905.6515,E,10,84.3455801673786,111110,,,A*6B,0
$GPRMC,43300,A,4849.5129,N,905.6519,E,10,84.3455801673786,111110,,,A*6B,0
$GPRMC,43400,A,4849.5129,N,905.6523,E,11,84.3455801673786,111110,,,A*6B,0
$GPRMC,43500,A,4849.5129,N,905.6527,E,11,84.3455801673786,111110,,,A*6B,0
$GPRMC,43600,A,4849.5130,N,905.6531,E,11,84.3455801673786,111110,,,A*6B,0
$GPRMC,43700,A,4849.5130,N,905.6535,E,12,84.3455801673786,111110,,,A*6B,0
$GPRMC,43800,A,4849.5130,N,905.6539,E,12,84.3455801673786,111110,,,A*6B,0
$GPRMC,43900,A,4849.5130,N,905.6543,E,13,84.3455801673786,111110,,,A*6B,0
$GPRMC,44000,A,4849.5131,N,905.6547,E,13,84.3455801673786,111110,,,A*6B,0
$GPRMC,44100,A,4849.5131,N,905.6551,E,13,84.3455801673786,111110,,,A*6B,0
$GPRMC,44200,A,4849.5131,N,905.6555,E,14,84.3455801673786,111110,,,A*6B,0
$GPRMC,44300,A,4849.5132,N,905.6559,E,14,84.3455801673786,111110,,,A*6B,0
$GPRMC,44400,A,4849.5132,N,905.6563,E,14,84.3455801673786,111110,,,A*6B,0
$GPRMC,44500,A,4849.5132,N,905.6567,E,15,84.3455801673786,111110,,,A*6B,0
$GPRMC,44600,A,4849.5132,N,905.6571,E,15,84.3455801673786,111110,,,A*6B,0
$GPRMC,44700,A,4849.5133,N,905.6575,E,16,84.3455801673786,111110,,,A*6B,0
$GPRMC,44800,A,4849.5133,N,905.6579,E,16,84.3455801673786,111110,,,A*6B,0
$GPRMC,44900,A,4849.5133,N,905.6583,E,16,84.3455801673786,111110,,,A*6B,0
$GPRMC,45000,A,4849.5133,N,905.6587,E,17,84.3455801673786,111110,,,A*6B,0
$GPRMC,45100,A,4849.5134,N,905.6591,E,17,84.3455801673786,111110,,,A*6B,0
$GPRMC,45200,A,4849.5134,N,905.6595,E,17,84.3455801673786,111110,,,A*6B,0
$GPRMC,45300,A,4849.5134,N,905.6598,E,18,84.3455801673786,111110,,,A*6B,0
$GPRMC,45400,A,4849.5134,N,905.6602,E,18,84.3455801673786,111110,,,A*6B,0
$GPRMC,45500,A,4849.5135,N,905.6606,E,19,84.3455801673786,111110,,,A*6B,0
$GPRMC,45600,A,4849.5135,N,905.6610,E,19,84.3455801673786,111110,,,A*6B,0
$GPRMC,45700,A,4849.5135,N,905.6614,E,19,84.3455801673786,111110,,,A*6B,0
$GPRMC,45800,A,4849.5135,N,905.6618,E,20,84.3455801673786,111110,,,A*6B,0
$GPRMC,45900,A,4849.5136,N,905.6622,E,20,84.3455801673786,111110,,,A*6B,0
$GPRMC,46000,A,4849.5136,N,905.6626,E,20,84.3455801673786,111110,,,A*6B,0
$GPRMC,46100,A,4849.5136,N,905.6630,E,21,84.3455801673786,111110,,,A*6B,0
$GPRMC,46200,A,4849.5136,N,905.6634,E,21,84.3455801673786,111110,,,A*6B,0
$GPRMC,46300,A,4849.5137,N,905.6638,E,22,84.3455801673786,111110,,,A*6B,0
$GPRMC,46400,A,4849.5137,N,905.6642,E,22,84.3455801673786,111110,,,A*6B,0
$GPRMC,46500,A,4849.5137,N,905.6646,E,22,84.3455801673786,111110,,,A*6B,0
$GPRMC,46600,A,4849.5137,N,905.6650,E,23,84.3455801673786,111110,,,A*6B,0
$GPRMC,46700,A,4849.5138,N,905.6654,E,23,84.3455801673786,111110,,,A*6B,0
$GPRMC,46800,A,4849.5138,N,905.6658,E,23,84.3455801673786,111110,,,A*6B,0
$GPRMC,46900,A,4849.5138,N,905.6662,E,24,84.3455801673786,111110,,,A*6B,0
$GPRMC,47000,A,4849.5139,N,905.6666,E,24,84.3455801673786,111110,,,A*6B,0
$GPRMC,47100,A,4849.5139,N,905.6674,E,25,87.2736892451675,111110,,,A*6B,0
$GPRMC,47200,A,4849.5139,N,905.6679,E,25,87.2736892451675,111110,,,A*6B,0
$GPRMC,47300,A,4849.5139,N,905.6685,E,25,87.2736892451675,111110,,,A*6B,0
$GPRMC,47400,A,4849.5140,N,905.6691,E,25,87.2736892451675,111110,,,A*6B,0
$GPRMC,47500,A,4849.5140,N,905.6696,E,25,87.2736892451675,111110,,,A*6B,0
$GPRMC,47600,A,4849.5140,N,905.6702,E,25,87.2736892451675,111110,,,A*6B,0
$GPRMC,47700,A,4849.5140,N,905.6708,E,25,87.2736892451675,111110,,,A*6B,0
$GPRMC,47800,A,4849.5140,N,905.6714,E,25,87.2736892451675,111110,,,A*6B,0
$GPRMC,47900,A,4849.5140,N,905.6719,E,25,87.2736892451675,111110,,,A*6B,0
$GPRMC,48000,A,4849.5141,N,905.6725,E,25,87.2736892451675,111110,,,A*6B,0
$GPRMC,48100,A,4849.5141,N,905.6731,E,25,87.2736892451675,111110,,,A*6B,0
$GPRMC,48200,A,4849.5141,N,905.6736,E,25,87.2736892451675,111110,,,A*6B,0
$GPRMC,48300,A,4849.5141,N,905.6742,E,25,87.2736892451675,111110,,,A*6B,0
$GPRMC,48400,A,4849.5141,N,905.6748,E,25,87.2736892451675,111110,,,A*6B,0
$GPRMC,48500,A,4849.5142,N,905.6753,E,25,87.2736892451675,111110,,,A*6B,0
$GPRMC,48600,A,4849.5142,N,905.6759,E,25,87.2736892451675,111110,,,A*6B,0
$GPRMC,48700,A,4849.5142,N,905.6765,E,25,87.2736892451675,111110,,,A*6B,0
$GPRMC,48800,A,4849.5142,N,905.6770,E,25,87.2736892451675,111110,,,A*6B,0
$GPRMC,48900,A,4849.5142,N,905.6776,E,25,87.2736892451675,111110,,,A*6B,0
$GPRMC,49000,A,4849.5142,N,905.6782,E,25,87.2736892451675,111110,,,A*6B,0
$GPRMC,49100,A,4849.5143,N,905.6788,E,25,87.2736892451675,111110,,,A*6B,0
$GPRMC,49200,A,4849.5143,N,905.6793,E,25,87.2736892451675,111110,,,A*6B,0
$GPRMC,49300,A,4849.5143,N,905.6799,E,25,87.2736892451675,111110,,,A*6B,0
$GPRMC,49400,A,4849.5143,N,905.6805,E,25,87.2736892451675,111110,,,A*6B,0
$GPRMC,49500,A,4849.5143,N,905.6810,E,25,87.2736892451675,111110,,,A*6B,0
$GPRMC,49600,A,4849.5143,N,905.6816,E,25,87.2736892451675,111110,,,A*6B,0
$GPRMC,49700,A,4849.5144,N,905.6822,E,25,87.2736892451675,111110,,,A*6B,0
$GPRMC,49800,A,4849.5144,N,905.6827,E,25,87.2736892451675,111110,,,A*6B,0
$GPRMC,49900,A,4849.5144,N,905.6833,E,25,87.2736892451675,111110,,,A*6B,0
$GPRMC,50000,A,4849.5144,N,905.6843,E,25,87.9047476569725,111110,,,A*6B,0
$GPRMC,50100,A,4849.5144,N,905.6848,E,25,87.9047476569725,111110,,,A*6B,0
$GPRMC,50200,A,4849.5145,N,905.6854,E,25,87.9047476569725,111110,,,A*6B,0
$GPRMC,50300,A,4849.5145,N,905.6860,E,25,87.9047476569725,111110,,,A*6B,0
$GPRMC,50400,A,4849.5145,N,905.6866,E,25,87.9047476569725,111110,,,A*6B,0
$GPRMC,50500,A,4849.5145,N,905.6871,E,25,87.9047476569725,111110,,,A*6B,0
$GPRMC,50600,A,4849.5145,N,905.6877,E,25,87.9047476569725,111110,,,A*6B,0
$GPRMC,50700,A,4849.5145,N,905.6883,E,25,87.9047476569725,111110,,,A*6B,0
$GPRMC,50800,A,4849.5145,N,905.6888,E,25,87.9047476569725,111110,,,A*6B,0
$GPRMC,50900,A,4849.5146,N,905.6894,E,25,87.9047476569725,111110,,,A*6B,0
$GPRMC,51000,A,4849.5146,N,905.6900,E,25,87.9047476569725,111110,,,A*6B,0
$GPRMC,51100,A,4849.5146,N,905.6906,E,25,87.9047476569725,111110,,,A*6B,0
$GPRMC,51200,A,4849.5146,N,905.6911,E,25,87.9047476569725,111110,,,A*6B,0
$GPRMC,51300,A,4849.5146,N,905.6917,E,25,87.9047476569725,111110,,,A*6B,0
$GPRMC,51400,A,4849.5146,N,905.6923,E,25,87.9047476569725,111110,,,A*6B,0
$GPRMC,51500,A,4849.5146,N,905.6929,E,25,87.9047476569725,111110,,,A*6B,0
$GPRMC,51600,A,4849.5147,N,905.6934,E,25,87.9047476569725,111110,,,A*6B,0
$GPRMC,51700,A,4849.5147,N,905.6940,E,25,87.9047476569725,111110,,,A*6B,0
$GPRMC,51800,A,4849.5147,N,905.6946,E,25,87.9047476569725,111110,,,A*6B,0
$GPRMC,51900,A,4849.5147,N,905.6952,E,25,87.9047476569725,111110,,,A*6B,0
$GPRMC,52000,A,4849.5147,N,905.6957,E,25,87.9047476569725,111110,,,A*6B,0
$GPRMC,52100,A,4849.5147,N,905.6963,E,25,87.9047476569725,111110,,,A*6B,0
$GPRMC,52200,A,4849.5147,N,905.6969,E,25,87.9047476569725,111110,,,A*6B,0
$GPRMC,52300,A,4849.5147,N,905.6974,E,25,87.9047476569725,111110,,,A*6B,0
$GPRMC,52400,A,4849.5148,N,905.6980,E,25,87.9047476569725,111110,,,A*6B,0
$GPRMC,52500,A,4849.5148,N,905.6986,E,25,87.9047476569725,111110,,,A*6B,0
$GPRMC,52600,A,4849.5148,N,905.6992,E,25,87.9047476569725,111110,,,A*6B,0
$GPRMC,52700,A,4849.5148,N,905.6997,E,25,87.9047476569725,111110,,,A*6B,0
$GPRMC,52800,A,4849.5148,N,905.7003,E,25,87.9047476569725,111110,,,A*6B,0
$GPRMC,52900,A,4849.5148,N,905.7009,E,25,87.9047476569725,111110,,,A*6B,0
$GPRMC,53000,A,4849.5148,N,905.7015,E,25,87.9047476569725,111110,,,A*6B,0
$GPRMC,53100,A,4849.5149,N,905.7020,E,25,87.9047476569725,111110,,,A*6B,0
$GPRMC,53200,A,4849.5149,N,905.7026,E,25,87.9047476569725,111110,,,A*6B,0
$GPRMC,53300,A,4849.5149,N,905.7032,E,25,87.9047476569725,111110,,,A*6B,0
$GPRMC,53400,A,4849.5149,N,905.7037,E,25,87.9047476569725,111110,,,A*6B,0
$GPRMC,53500,A,4849.5149,N,905.7043,E,25,87.9047476569725,111110,,,A*6B,0
$GPRMC,53600,A,4849.5149,N,905.7049,E,25,87.9047476569725,111110,,,A*6B,0
$GPRMC,53700,A,4849.5149,N,905.7055,E,25,87.9047476569725,111110,,,A*6B,0
$GPRMC,53800,A,4849.5150,N,905.7060,E,25,87.9047476569725,111110,,,A*6B,0
$GPRMC,53900,A,4849.5150,N,905.7066,E,25,87.9047476569725,111110,,,A*6B,0
$GPRMC,54000,A,4849.5150,N,905.7072,E,25,87.9047476569725,111110,,,A*6B,0
$GPRMC,54100,A,4849.5150,N,905.7078,E,25,87.9047476569725,111110,,,A*6B,0
$GPRMC,54200,A,4849.5150,N,905.7083,E,25,87.9047476569725,111110,,,A*6B,0
$GPRMC,54300,A,4849.5150,N,905.7089,E,25,87.9047476569725,111110,,,A*6B,0
$GPRMC,54400,A,4849.5150,N,905.7095,E,25,87.9047476569725,111110,,,A*6B,0
$GPRMC,54500,A,4849.5151,N,905.7107,E,25,86.6932542747381,111110,,,A*6B,0
$GPRMC,54600,A,4849.5151,N,905.7112,E,25,86.6932542747381,111110,,,A*6B,0
$GPRMC,54700,A,4849.5151,N,905.7118,E,25,86.6932542747381,111110,,,A*6B,0
$GPRMC,54800,A,4849.5151,N,905.7124,E,25,86.6932542747381,111110,,,A*6B,0
$GPRMC,54900,A,4849.5152,N,905.7129,E,25,86.6932542747381,111110,,,A*6B,0
$GPRMC,55000,A,4849.5152,N,905.7135,E,25,86.6932542747381,111110,,,A*6B,0
$GPRMC,55100,A,4849.5152,N,905.7141,E,25,86.6932542747381,111110,,,A*6B,0
$GPRMC,55200,A,4849.5152,N,905.7147,E,25,86.6932542747381,111110,,,A*6B,0
$GPRMC,55300,A,4849.5152,N,905.7152,E,25,86.6932542747381,111110,,,A*6B,0
$GPRMC,55400,A,4849.5153,N,905.7158,E,25,86.6932542747381,111110,,,A*6B,0
$GPRMC,55500,A,4849.5153,N,905.7164,E,25,86.6932542747381,111110,,,A*6B,0
$GPRMC,55600,A,4849.5153,N,905.7169,E,25,86.6932542747381,111110,,,A*6B,0
$GPRMC,55700,A,4849.5153,N,905.7175,E,25,86.6932542747381,111110,,,A*6B,0
$GPRMC,55800,A,4849.5153,N,905.7181,E,25,86.6932542747381,111110,,,A*6B,0
$GPRMC,55900,A,4849.5154,N,905.7186,E,25,86.6932542747381,111110,,,A*6B,0
$GPRMC,56000,A,4849.5154,N,905.7192,E,25,86.6932542747381,111110,,,A*6B,0
$GPRMC,56100,A,4849.5154,N,905.7198,E,25,86.6932542747381,111110,,,A*6B,0
$GPRMC,56200,A,4849.5154,N,905.7204,E,25,86.6932542747381,111110,,,A*6B,0
$GPRMC,56300,A,4849.5155,N,905.7209,E,25,86.6932542747381,111110,,,A*6B,0
$GPRMC,56400,A,4849.5155,N,905.7215,E,25,86.6932542747381,111110,,,A*6B,0
$GPRMC,56500,A,4849.5155,N,905.7221,E,25,86.6932542747381,111110,,,A*6B,0
$GPRMC,56600,A,4849.5155,N,905.7226,E,25,86.6932542747381,111110,,,A*6B,0
$GPRMC,56700,A,4849.5155,N,905.7232,E,25,86.6932542747381,111110,,,A*6B,0
$GPRMC,56800,A,4849.5156,N,905.7238,E,25,86.6932542747381,111110,,,A*6B,0
$GPRMC,56900,A,4849.5156,N,905.7244,E,25,86.6932542747381,111110,,,A*6B,0
$GPRMC,57000,A,4849.5156,N,905.7249,E,25,86.6932542747381,111110,,,A*6B,0
$GPRMC,57100,A,4849.5156,N,905.7255,E,25,86.6932542747381,111110,,,A*6B,0
$GPRMC,57200,A,4849.5157,N,905.7261,E,25,86.6932542747381,111110,,,A*6B,0
$GPRMC,57300,A,4849.5157,N,905.7266,E,25,86.6932542747381,111110,,,A*6B,0
$GPRMC,57400,A,4849.5157,N,905.7272,E,25,86.6932542747381,111110,,,A*6B,0
$GPRMC,57500,A,4849.5157,N,905.7278,E,25,86.6932542747381,111110,,,A*6B,0
$GPRMC,57600,A,4849.5157,N,905.7283,E,25,86.6932542747381,111110,,,A*6B,0
$GPRMC,57700,A,4849.5158,N,905.7289,E,25,86.6932542747381,111110,,,A*6B,0
$GPRMC,57800,A,4849.5158,N,905.7295,E,25,86.6932542747381,111110,,,A*6B,0
$GPRMC,57900,A,4849.5158,N,905.7301,E,25,86.6932542747381,111110,,,A*6B,0
$GPRMC,58000,A,4849.5158,N,905.7306,E,25,86.6932542747381,111110,,,A*6B,0
$GPRMC,58100,A,4849.5158,N,905.7312,E,25,86.6932542747381,111110,,,A*6B,0
$GPRMC,58200,A,4849.5159,N,905.7318,E,25,86.6932542747381,111110,,,A*6B,0
$GPRMC,58300,A,4849.5159,N,905.7323,E,25,86.6932542747381,111110,,,A*6B,0
$GPRMC,58400,A,4849.5159,N,905.7329,E,25,86.6932542747381,111110,,,A*6B,0
$GPRMC,58500,A,4849.5159,N,905.7335,E,25,86.6932542747381,111110,,,A*6B,0
$GPRMC,58600,A,4849.5160,N,905.7340,E,25,86.6932542747381,111110,,,A*6B,0
$GPRMC,58700,A,4849.5160,N,905.7346,E,25,86.6932542747381,111110,,,A*6B,0
$GPRMC,58800,A,4849.5160,N,905.7352,E,25,86.6932542747381,111110,,,A*6B,0
$GPRMC,58900,A,4849.5160,N,905.7358,E,25,86.6932542747381,111110,,,A*6B,0
$GPRMC,59000,A,4849.5160,N,905.7363,E,25,86.6932542747381,111110,,,A*6B,0
$GPRMC,59100,A,4849.5161,N,905.7369,E,25,86.6932542747381,111110,,,A*6B,0
$GPRMC,59200,A,4849.5161,N,905.7375,E,25,86.6932542747381,111110,,,A*6B,0
$GPRMC,59300,A,4849.5161,N,905.7380,E,25,86.6932542747381,111110,,,A*6B,0
$GPRMC,59400,A,4849.5161,N,905.7386,E,25,86.6932542747381,111110,,,A*6B,0
$GPRMC,59500,A,4849.5162,N,905.7392,E,25,86.6932542747381,111110,,,A*6B,0
$GPRMC,59600,A,4849.5162,N,905.7398,E,25,86.6932542747381,111110,,,A*6B,0
$GPRMC,59700,A,4849.5162,N,905.7403,E,25,86.6932542747381,111110,,,A*6B,0
$GPRMC,59800,A,4849.5162,N,905.7409,E,25,86.6932542747381,111110,,,A*6B,0
$GPRMC,59900,A,4849.5162,N,905.7415,E,25,86.6932542747381,111110,,,A*6B,0
$GPRMC,60000,A,4849.5163,N,905.7420,E,25,86.6932542747381,111110,,,A*6B,0
$GPRMC,60100,A,4849.5163,N,905.7426,E,25,86.6932542747381,111110,,,A*6B,0
$GPRMC,60200,A,4849.5163,N,905.7432,E,25,86.6932542747381,111110,,,A*6B,0
$GPRMC,60300,A,4849.5163,N,905.7437,E,25,86.6932542747381,111110,,,A*6B,0
$GPRMC,60400,A,4849.5163,N,905.7443,E,25,86.6932542747381,111110,,,A*6B,0
$GPRMC,60500,A,4849.5164,N,905.7449,E,25,86.6932542747381,111110,,,A*6B,0
$GPRMC,60600,A,4849.5164,N,905.7455,E,25,86.6932542747381,111110,,,A*6B,0
$GPRMC,60700,A,4849.5164,N,905.7469,E,25,85.8023334115157,111110,,,A*6B,0
$GPRMC,60800,A,4849.5165,N,905.7477,E,25,85.8023334115157,111110,,,A*6B,0
$GPRMC,60900,A,4849.5165,N,905.7486,E,25,85.8023334115157,111110,,,A*6B,0
$GPRMC,61000,A,4849.5166,N,905.7494,E,26,85.8023334115157,111110,,,A*6B,0
$GPRMC,61100,A,4849.5166,N,905.7503,E,26,85.8023334115157,111110,,,A*6B,0
$GPRMC,61200,A,4849.5167,N,905.7512,E,27,85.8023334115157,111110,,,A*6B,0
$GPRMC,61300,A,4849.5167,N,905.7520,E,27,85.8023334115157,111110,,,A*6B,0
$GPRMC,61400,A,4849.5167,N,905.7529,E,27,85.8023334115157,111110,,,A*6B,0
$GPRMC,61500,A,4849.5168,N,905.7537,E,28,85.8023334115157,111110,,,A*6B,0
$GPRMC,61600,A,4849.5168,N,905.7546,E,28,85.8023334115157,111110,,,A*6B,0
$GPRMC,61700,A,4849.5169,N,905.7554,E,29,85.8023334115157,111110,,,A*6B,0
$GPRMC,61800,A,4849.5169,N,905.7563,E,29,85.8023334115157,111110,,,A*6B,0
$GPRMC,61900,A,4849.5169,N,905.7571,E,30,85.8023334115157,111110,,,A*6B,0
$GPRMC,62000,A,4849.5170,N,905.7580,E,30,85.8023334115157,111110,,,A*6B,0
$GPRMC,62100,A,4849.5170,N,905.7589,E,30,85.8023334115157,111110,,,A*6B,0
$GPRMC,62200,A,4849.5171,N,905.7597,E,31,85.8023334115157,111110,,,A*6B,0
$GPRMC,62300,A,4849.5171,N,905.7606,E,31,85.8023334115157,111110,,,A*6B,0
$GPRMC,62400,A,4849.5171,N,905.7614,E,32,85.8023334115157,111110,,,A*6B,0
$GPRMC,62500,A,4849.5172,N,905.7623,E,32,85.8023334115157,111110,,,A*6B,0
$GPRMC,62600,A,4849.5172,N,905.7631,E,32,85.8023334115157,111110,,,A*6B,0
$GPRMC,62700,A,4849.5173,N,905.7640,E,33,85.8023334115157,111110,,,A*6B,0
$GPRMC,62800,A,4849.5173,N,905.7649,E,33,85.8023334115157,111110,,,A*6B,0
$GPRMC,62900,A,4849.5174,N,905.7657,E,34,85.8023334115157,111110,,,A*6B,0
$GPRMC,63000,A,4849.5174,N,905.7666,E,34,85.8023334115157,111110,,,A*6B,0
$GPRMC,63100,A,4849.5174,N,905.7674,E,35,85.8023334115157,111110,,,A*6B,0
$GPRMC,63200,A,4849.5175,N,905.7683,E,35,85.8023334115157,111110,,,A*6B,0
$GPRMC,63300,A,4849.5175,N,905.7691,E,35,85.8023334115157,111110,,,A*6B,0
$GPRMC,63400,A,4849.5176,N,905.7700,E,36,85.8023334115157,111110,,,A*6B,0
$GPRMC,63500,A,4849.5176,N,905.7709,E,36,85.8023334115157,111110,,,A*6B,0
$GPRMC,63600,A,4849.5176,N,905.7717,E,37,85.8023334115157,111110,,,A*6B,0
$GPRMC,63700,A,4849.5177,N,905.7726,E,37,85.8023334115157,111110,,,A*6B,0
$GPRMC,63800,A,4849.5177,N,905.7734,E,37,85.8023334115157,111110,,,A*6B,0
$GPRMC,63900,A,4849.5178,N,905.7743,E,38,85.8023334115157,111110,,,A*6B,0
$GPRMC,64000,A,4849.5178,N,905.7751,E,38,85.8023334115157,111110,,,A*6B,0
$GPRMC,64100,A,4849.5179,N,905.7760,E,39,85.8023334115157,111110,,,A*6B,0
$GPRMC,64200,A,4849.5179,N,905.7769,E,39,85.8023334115157,111110,,,A*6B,0
$GPRMC,64300,A,4849.5179,N,905.7777,E,39,85.8023334115157,111110,,,A*6B,0
$GPRMC,64400,A,4849.5180,N,905.7786,E,40,85.8023334115157,111110,,,A*6B,0
$GPRMC,64500,A,4849.5180,N,905.7794,E,40,85.8023334115157,111110,,,A*6B,0
$GPRMC,64600,A,4849.5181,N,905.7803,E,41,85.8023334115157,111110,,,A*6B,0
$GPRMC,64700,A,4849.5181,N,905.7811,E,41,85.8023334115157,111110,,,A*6B,0
$GPRMC,64800,A,4849.5181,N,905.7820,E,42,85.8023334115157,111110,,,A*6B,0
$GPRMC,64900,A,4849.5182,N,905.7829,E,42,85.8023334115157,111110,,,A*6B,0
$GPRMC,65000,A,4849.5182,N,905.7837,E,42,85.8023334115157,111110,,,A*6B,0
$GPRMC,65100,A,4849.5183,N,905.7846,E,43,85.8023334115157,111110,,,A*6B,0
$GPRMC,65200,A,4849.5183,N,905.7854,E,43,85.8023334115157,111110,,,A*6B,0
$GPRMC,65300,A,4849.5183,N,905.7863,E,44,85.8023334115157,111110,,,A*6B,0
$GPRMC,65400,A,4849.5184,N,905.7871,E,44,85.8023334115157,111110,,,A*6B,0
$GPRMC,65500,A,4849.5184,N,905.7880,E,44,85.8023334115157,111110,,,A*6B,0
$GPRMC,65600,A,4849.5185,N,905.7888,E,45,85.8023334115157,111110,,,A*6B,0
$GPRMC,65700,A,4849.5185,N,905.7897,E,45,85.8023334115157,111110,,,A*6B,0
$GPRMC,65800,A,4849.5186,N,905.7906,E,46,85.8023334115157,111110,,,A*6B,0
$GPRMC,65900,A,4849.5186,N,905.7914,E,46,85.8023334115157,111110,,,A*6B,0
$GPRMC,66000,A,4849.5186,N,905.7923,E,47,85.8023334115157,111110,,,A*6B,0
$GPRMC,66100,A,4849.5187,N,905.7931,E,47,85.8023334115157,111110,,,A*6B,0
$GPRMC,66200,A,4849.5187,N,905.7940,E,47,85.8023334115157,111110,,,A*6B,0
$GPRMC,66300,A,4849.5188,N,905.7948,E,48,85.8023334115157,111110,,,A*6B,0
$GPRMC,66400,A,4849.5188,N,905.7957,E,48,85.8023334115157,111110,,,A*6B,0
$GPRMC,66500,A,4849.5188,N,905.7966,E,49,85.8023334115157,111110,,,A*6B,0
$GPRMC,66600,A,4849.5189,N,905.7974,E,49,85.8023334115157,111110,,,A*6B,0
$GPRMC,66700,A,4849.5190,N,905.7995,E,50,87.9545916557314,111110,,,A*6B,0
$GPRMC,66800,A,4849.5190,N,905.8007,E,50,87.9545916557314,111110,,,A*6B,0
$GPRMC,66900,A,4849.5190,N,905.8018,E,50,87.9545916557314,111110,,,A*6B,0
$GPRMC,67000,A,4849.5191,N,905.8030,E,50,87.9545916557314,111110,,,A*6B,0
$GPRMC,67100,A,4849.5191,N,905.8042,E,50,87.9545916557314,111110,,,A*6B,0
$GPRMC,67200,A,4849.5191,N,905.8054,E,50,87.9545916557314,111110,,,A*6B,0
$GPRMC,67300,A,4849.5192,N,905.8065,E,50,87.9545916557314,111110,,,A*6B,0
$GPRMC,67400,A,4849.5192,N,905.8077,E,50,87.9545916557314,111110,,,A*6B,0
$GPRMC,67500,A,4849.5192,N,905.8089,E,50,87.9545916557314,111110,,,A*6B,0
$GPRMC,67600,A,4849.5192,N,905.8101,E,50,87.9545916557314,111110,,,A*6B,0
$GPRMC,67700,A,4849.5193,N,905.8112,E,50,87.9545916557314,111110,,,A*6B,0
$GPRMC,67800,A,4849.5193,N,905.8124,E,50,87.9545916557314,111110,,,A*6B,0
$GPRMC,67900,A,4849.5193,N,905.8136,E,50,87.9545916557314,111110,,,A*6B,0
$GPRMC,68000,A,4849.5193,N,905.8148,E,50,87.9545916557314,111110,,,A*6B,0
$GPRMC,68100,A,4849.5194,N,905.8159,E,50,87.9545916557314,111110,,,A*6B,0
$GPRMC,68200,A,4849.5194,N,905.8175,E,50,85.9143836496924,111110,,,A*6B,0
$GPRMC,68300,A,4849.5195,N,905.8187,E,50,85.9143836496924,111110,,,A*6B,0
$GPRMC,68400,A,4849.5195,N,905.8199,E,50,85.9143836496924,111110,,,A*6B,0
$GPRMC,68500,A,4849.5196,N,905.8211,E,50,85.9143836496924,111110,,,A*6B,0
$GPRMC,68600,A,4849.5196,N,905.8223,E,50,85.9143836496924,111110,,,A*6B,0
$GPRMC,68700,A,4849.5197,N,905.8235,E,50,85.9143836496924,111110,,,A*6B,0
$GPRMC,68800,A,4849.5198,N,905.8247,E,50,85.9143836496924,111110,,,A*6B,0
$GPRMC,68900,A,4849.5198,N,905.8259,E,50,85.9143836496924,111110,,,A*6B,0
$GPRMC,69000,A,4849.5199,N,905.8271,E,50,85.9143836496924,111110,,,A*6B,0
$GPRMC,69100,A,4849.5199,N,905.8283,E,50,85.9143836496924,111110,,,A*6B,0
$GPRMC,69200,A,4849.5200,N,905.8295,E,50,85.9143836496924,111110,,,A*6B,0
$GPRMC,69300,A,4849.5200,N,905.8310,E,50,82.1168619174743,111110,,,A*6B,0
$GPRMC,69400,A,4849.5202,N,905.8322,E,50,82.1168619174743,111110,,,A*6B,0
$GPRMC,69500,A,4849.5203,N,905.8333,E,50,82.1168619174743,111110,,,A*6B,0
$GPRMC,69600,A,4849.5204,N,905.8344,E,50,82.1168619174743,111110,,,A*6B,0
$GPRMC,69700,A,4849.5205,N,905.8356,E,50,82.1168619174743,111110,,,A*6B,0
$GPRMC,69800,A,4849.5206,N,905.8367,E,50,82.1168619174743,111110,,,A*6B,0
$GPRMC,69900,A,4849.5207,N,905.8379,E,50,82.1168619174743,111110,,,A*6B,0
$GPRMC,70000,A,4849.5208,N,905.8390,E,50,82.1168619174743,111110,,,A*6B,0
$GPRMC,70100,A,4849.5209,N,905.8401,E,50,82.1168619174743,111110,,,A*6B,0
$GPRMC,70200,A,4849.5210,N,905.8415,E,50,75.0685888530223,111110,,,A*6B,0
$GPRMC,70300,A,4849.5212,N,905.8427,E,50,75.0685888530223,111110,,,A*6B,0
$GPRMC,70400,A,4849.5214,N,905.8439,E,50,75.0685888530223,111110,,,A*6B,0
$GPRMC,70500,A,4849.5216,N,905.8450,E,50,75.0685888530223,111110,,,A*6B,0
$GPRMC,70600,A,4849.5218,N,905.8462,E,50,75.0685888530223,111110,,,A*6B,0
$GPRMC,70700,A,4849.5220,N,905.8474,E,50,75.0685888530223,111110,,,A*6B,0
$GPRMC,70800,A,4849.5222,N,905.8486,E,50,75.0685888530223,111110,,,A*6B,0
$GPRMC,70900,A,4849.5225,N,905.8498,E,50,75.0685888530223,111110,,,A*6B,0
$GPRMC,71000,A,4849.5227,N,905.8509,E,50,75.0685888530223,111110,,,A*6B,0
$GPRMC,71100,A,4849.5229,N,905.8521,E,50,75.0685888530223,111110,,,A*6B,0
$GPRMC,71200,A,4849.5231,N,905.8533,E,50,75.0685888530223,111110,,,A*6B,0
$GPRMC,71300,A,4849.5233,N,905.8545,E,50,75.0685888530223,111110,,,A*6B,0
$GPRMC,71400,A,4849.5235,N,905.8560,E,50,67.8336658183884,111110,,,A*6B,0
$GPRMC,71500,A,4849.5238,N,905.8570,E,50,67.8336658183884,111110,,,A*6B,0
$GPRMC,71600,A,4849.5241,N,905.8581,E,50,67.8336658183884,111110,,,A*6B,0
$GPRMC,71700,A,4849.5244,N,905.8592,E,50,67.8336658183884,111110,,,A*6B,0
$GPRMC,71800,A,4849.5247,N,905.8602,E,50,67.8336658183884,111110,,,A*6B,0
$GPRMC,71900,A,4849.5250,N,905.8613,E,50,67.8336658183884,111110,,,A*6B,0
$GPRMC,72000,A,4849.5253,N,905.8624,E,50,67.8336658183884,111110,,,A*6B,0
$GPRMC,72100,A,4849.5255,N,905.8634,E,50,67.8336658183884,111110,,,A*6B,0
$GPRMC,72200,A,4849.5258,N,905.8645,E,50,67.8336658183884,111110,,,A*6B,0
$GPRMC,72300,A,4849.5261,N,905.8656,E,50,67.8336658183884,111110,,,A*6B,0
$GPRMC,72400,A,4849.5264,N,905.8666,E,50,67.8336658183884,111110,,,A*6B,0
$GPRMC,72500,A,4849.5267,N,905.8677,E,50,67.8336658183884,111110,,,A*6B,0
$GPRMC,72600,A,4849.5270,N,905.8690,E,50,65.6062754211095,111110,,,A*6B,0
$GPRMC,72700,A,4849.5274,N,905.8701,E,50,65.6062754211095,111110,,,A*6B,0
$GPRMC,72800,A,4849.5277,N,905.8711,E,50,65.6062754211095,111110,,,A*6B,0
$GPRMC,72900,A,4849.5280,N,905.8721,E,50,65.6062754211095,111110,,,A*6B,0
$GPRMC,73000,A,4849.5283,N,905.8732,E,50,65.6062754211095,111110,,,A*6B,0
$GPRMC,73100,A,4849.5286,N,905.8742,E,50,65.6062754211095,111110,,,A*6B,0
$GPRMC,73200,A,4849.5289,N,905.8753,E,50,65.6062754211095,111110,,,A*6B,0
$GPRMC,73300,A,4849.5292,N,905.8763,E,50,65.6062754211095,111110,,,A*6B,0
$GPRMC,73400,A,4849.5295,N,905.8774,E,50,65.6062754211095,111110,,,A*6B,0
$GPRMC,73500,A,4849.5298,N,905.8784,E,50,65.6062754211095,111110,,,A*6B,0
$GPRMC,73600,A,4849.5302,N,905.8795,E,50,65.6062754211095,111110,,,A*6B,0
$GPRMC,73700,A,4849.5305,N,905.8805,E,50,65.6062754211095,111110,,,A*6B,0
$GPRMC,73800,A,4849.5308,N,905.8815,E,50,65.6062754211095,111110,,,A*6B,0
$GPRMC,73900,A,4849.5312,N,905.8829,E,50,48.296161099173,111110,,,A*6B,0
$GPRMC,74000,A,4849.5317,N,905.8837,E,50,48.296161099173,111110,,,A*6B,0
$GPRMC,74100,A,4849.5322,N,905.8846,E,50,48.296161099173,111110,,,A*6B,0
$GPRMC,74200,A,4849.5327,N,905.8855,E,50,48.296161099173,111110,,,A*6B,0
$GPRMC,74300,A,4849.5333,N,905.8864,E,50,48.296161099173,111110,,,A*6B,0
$GPRMC,74400,A,4849.5338,N,905.8873,E,50,48.296161099173,111110,,,A*6B,0
$GPRMC,74500,A,4849.5343,N,905.8882,E,50,48.296161099173,111110,,,A*6B,0
$GPRMC,74600,A,4849.5348,N,905.8891,E,50,48.296161099173,111110,,,A*6B,0
$GPRMC,74700,A,4849.5354,N,905.8900,E,50,48.296161099173,111110,,,A*6B,0
$GPRMC,74800,A,4849.5359,N,905.8909,E,50,48.296161099173,111110,,,A*6B,0
$GPRMC,74900,A,4849.5364,N,905.8918,E,50,48.296161099173,111110,,,A*6B,0
$GPRMC,75000,A,4849.5369,N,905.8927,E,50,48.296161099173,111110,,,A*6B,0
$GPRMC,75100,A,4849.5374,N,905.8936,E,50,48.296161099173,111110,,,A*6B,0
$GPRMC,75200,A,4849.5380,N,905.8944,E,50,48.296161099173,111110,,,A*6B,0
$GPRMC,75300,A,4849.5385,N,905.8953,E,50,48.296161099173,111110,,,A*6B,0
$GPRMC,75400,A,4849.5390,N,905.8962,E,50,48.296161099173,111110,,,A*6B,0
$GPRMC,75500,A,4849.5395,N,905.8971,E,50,48.296161099173,111110,,,A*6B,0
$GPRMC,75600,A,4849.5401,N,905.8980,E,50,48.296161099173,111110,,,A*6B,0
$GPRMC,75700,A,4849.5407,N,905.8991,E,50,47.4424661025357,111110,,,A*6B,0
$GPRMC,75800,A,4849.5412,N,905.9000,E,50,47.4424661025357,111110,,,A*6B,0
$GPRMC,75900,A,4849.5418,N,905.9009,E,50,47.4424661025357,111110,,,A*6B,0
$GPRMC,76000,A,4849.5423,N,905.9017,E,50,47.4424661025357,111110,,,A*6B,0
$GPRMC,76100,A,4849.5428,N,905.9026,E,50,47.4424661025357,111110,,,A*6B,0
$GPRMC,76200,A,4849.5434,N,905.9035,E,50,47.4424661025357,111110,,,A*6B,0
$GPRMC,76300,A,4849.5439,N,905.9044,E,50,47.4424661025357,111110,,,A*6B,0
$GPRMC,76400,A,4849.5444,N,905.9052,E,50,47.4424661025357,111110,,,A*6B,0
$GPRMC,76500,A,4849.5449,N,905.9061,E,50,47.4424661025357,111110,,,A*6B,0
$GPRMC,76600,A,4849.5455,N,905.9070,E,50,47.4424661025357,111110,,,A*6B,0
$GPRMC,76700,A,4849.5460,N,905.9079,E,50,47.4424661025357,111110,,,A*6B,0
$GPRMC,76800,A,4849.5465,N,905.9087,E,50,47.4424661025357,111110,,,A*6B,0
$GPRMC,76900,A,4849.5471,N,905.9096,E,50,47.4424661025357,111110,,,A*6B,0
$GPRMC,77000,A,4849.5476,N,905.9105,E,50,47.4424661025357,111110,,,A*6B,0
$GPRMC,77100,A,4849.5481,N,905.9114,E,50,47.4424661025357,111110,,,A*6B,0
$GPRMC,77200,A,4849.5486,N,905.9122,E,50,47.4424661025357,111110,,,A*6B,0
$GPRMC,77300,A,4849.5492,N,905.9131,E,50,47.4424661025357,111110,,,A*6B,0
$GPRMC,77400,A,4849.5497,N,905.9140,E,50,47.4424661025357,111110,,,A*6B,0
$GPRMC,77500,A,4849.5502,N,905.9149,E,50,47.4424661025357,111110,,,A*6B,0
$GPRMC,77600,A,4849.5508,N,905.9157,E,50,47.4424661025357,111110,,,A*6B,0
$GPRMC,77700,A,4849.5514,N,905.9168,E,50,49.4749493564411,111110,,,A*6B,0
$GPRMC,77800,A,4849.5519,N,905.9177,E,50,49.4749493564411,111110,,,A*6B,0
$GPRMC,77900,A,4849.5524,N,905.9186,E,50,49.4749493564411,111110,,,A*6B,0
$GPRMC,78000,A,4849.5529,N,905.9195,E,50,49.4749493564411,111110,,,A*6B,0
$GPRMC,78100,A,4849.5534,N,905.9204,E,50,49.4749493564411,111110,,,A*6B,0
$GPRMC,78200,A,4849.5539,N,905.9213,E,50,49.4749493564411,111110,,,A*6B,0
$GPRMC,78300,A,4849.5544,N,905.9222,E,50,49.4749493564411,111110,,,A*6B,0
$GPRMC,78400,A,4849.5549,N,905.9231,E,50,49.4749493564411,111110,,,A*6B,0
$GPRMC,78500,A,4849.5554,N,905.9240,E,50,49.4749493564411,111110,,,A*6B,0
$GPRMC,78600,A,4849.5559,N,905.9249,E,50,49.4749493564411,111110,,,A*6B,0
$GPRMC,78700,A,4849.5564,N,905.9258,E,50,49.4749493564411,111110,,,A*6B,0
$GPRMC,78800,A,4849.5570,N,905.9267,E,50,49.4749493564411,111110,,,A*6B,0
$GPRMC,78900,A,4849.5575,N,905.9276,E,50,49.4749493564411,111110,,,A*6B,0
$GPRMC,79000,A,4849.5580,N,905.9285,E,50,49.4749493564411,111110,,,A*6B,0
$GPRMC,79100,A,4849.5585,N,905.9293,E,50,49.4749493564411,111110,,,A*6B,0
$GPRMC,79200,A,4849.5590,N,905.9302,E,50,49.4749493564411,111110,,,A*6B,0
$GPRMC,79300,A,4849.5595,N,905.9311,E,50,49.4749493564411,111110,,,A*6B,0
$GPRMC,79400,A,4849.5600,N,905.9320,E,50,49.4749493564411,111110,,,A*6B,0
$GPRMC,79500,A,4849.5605,N,905.9329,E,50,49.4749493564411,111110,,,A*6B,0
$GPRMC,79600,A,4849.5610,N,905.9338,E,50,49.4749493564411,111110,,,A*6B,0
$GPRMC,79700,A,4849.5615,N,905.9347,E,50,49.4749493564411,111110,,,A*6B,0
$GPRMC,79800,A,4849.5620,N,905.9356,E,50,49.4749493564411,111110,,,A*6B,0
$GPRMC,79900,A,4849.5626,N,905.9368,E,50,52.1250642909526,111110,,,A*6B,0
$GPRMC,80000,A,4849.5631,N,905.9377,E,50,52.1250642909526,111110,,,A*6B,0
$GPRMC,80100,A,4849.5636,N,905.9386,E,50,52.1250642909526,111110,,,A*6B,0
$GPRMC,80200,A,4849.5640,N,905.9395,E,50,52.1250642909526,111110,,,A*6B,0
$GPRMC,80300,A,4849.5645,N,905.9404,E,50,52.1250642909526,111110,,,A*6B,0
$GPRMC,80400,A,4849.5650,N,905.9413,E,50,52.1250642909526,111110,,,A*6B,0
$GPRMC,80500,A,4849.5654,N,905.9422,E,50,52.1250642909526,111110,,,A*6B,0
$GPRMC,80600,A,4849.5659,N,905.9431,E,50,52.1250642909526,111110,,,A*6B,0
$GPRMC,80700,A,4849.5664,N,905.9440,E,50,52.1250642909526,111110,,,A*6B,0
$GPRMC,80800,A,4849.5668,N,905.9449,E,50,52.1250642909526,111110,,,A*6B,0
$GPRMC,80900,A,4849.5673,N,905.9459,E,50,52.1250642909526,111110,,,A*6B,0
$GPRMC,81000,A,4849.5678,N,905.9468,E,50,52.1250642909526,111110,,,A*6B,0
$GPRMC,81100,A,4849.5682,N,905.9477,E,50,52.1250642909526,111110,,,A*6B,0
$GPRMC,81200,A,4849.5687,N,905.9486,E,50,52.1250642909526,111110,,,A*6B,0
$GPRMC,81300,A,4849.5692,N,905.9495,E,50,52.1250642909526,111110,,,A*6B,0
