$GPRMC,140658.940,A,4849.5848,N,00905.9897,E,27.68,071.79,110317,,,A*FF
$GPRMC,140659.040,A,4849.5850,N,00905.9908,E,27.56,071.79,110317,,,A*FF
$GPRMC,140659.141,A,4849.5853,N,00905.9919,E,27.46,071.79,110317,,,A*FF
$GPRMC,140659.242,A,4849.5855,N,00905.9930,E,27.35,071.79,110317,,,A*FF
$GPRMC,140659.343,A,4849.5857,N,00905.9941,E,27.24,071.79,110317,,,A*FF
$GPRMC,140659.443,A,4849.5860,N,00905.9952,E,27.13,071.79,110317,,,A*FF
$GPRMC,140659.544,A,4849.5862,N,00905.9963,E,27.02,071.79,110317,,,A*FF
$GPRMC,140659.645,A,4849.5865,N,00905.9973,E,26.91,071.79,110317,,,A*FF
$GPRMC,140659.746,A,4849.5867,N,00905.9984,E,26.80,071.79,110317,,,A*FF
$GPRMC,140659.847,A,4849.5869,N,00905.9995,E,26.69,071.79,110317,,,A*FF
$GPRMC,140659.949,A,4849.5871,N,00906.0006,E,26.58,071.79,110317,,,A*FF
$GPRMC,140700.050,A,4849.5874,N,00906.0016,E,26.47,071.79,110317,,,A*FF
$GPRMC,140700.151,A,4849.5876,N,00906.0027,E,26.36,071.79,110317,,,A*FF
$GPRMC,140700.252,A,4849.5878,N,00906.0037,E,26.25,071.79,110317,,,A*FF
$GPRMC,140700.352,A,4849.5881,N,00906.0048,E,26.14,071.79,110317,,,A*FF
$GPRMC,140700.453,A,4849.5883,N,00906.0058,E,26.04,071.79,110317,,,A*FF
$GPRMC,140700.553,A,4849.5885,N,00906.0069,E,25.92,071.79,110317,,,A*FF
$GPRMC,140700.654,A,4849.5887,N,00906.0079,E,25.82,071.79,110317,,,A*FF
$GPRMC,140700.755,A,4849.5890,N,00906.0089,E,25.71,071.79,110317,,,A*FF
$GPRMC,140700.856,A,4849.5892,N,00906.0100,E,25.59,071.79,110317,,,A*FF
$GPRMC,140700.957,A,4849.5894,N,00906.0110,E,25.49,071.79,110317,,,A*FF
$GPRMC,140701.058,A,4849.5896,N,00906.0120,E,25.38,071.79,110317,,,A*FF
$GPRMC,140701.159,A,4849.5898,N,00906.0130,E,25.27,071.79,110317,,,A*FF
$GPRMC,140701.260,A,4849.5901,N,00906.0140,E,25.16,071.79,110317,,,A*FF
$GPRMC,140701.361,A,4849.5903,N,00906.0150,E,25.05,071.79,110317,,,A*FF
$GPRMC,140701.462,A,4849.5905,N,00906.0160,E,24.94,071.79,110317,,,A*FF
$GPRMC,140701.562,A,4849.5907,N,00906.0170,E,24.83,071.79,110317,,,A*FF
$GPRMC,140701.663,A,4849.5909,N,00906.0180,E,24.72,071.79,110317,,,A*FF
$GPRMC,140701.763,A,4849.5911,N,00906.0190,E,24.61,071.79,110317,,,A*FF
$GPRMC,140701.863,A,4849.5914,N,00906.0200,E,24.50,071.79,110317,,,A*FF
$GPRMC,140701.964,A,4849.5917,N,00906.0215,E,24.39,074.85,110317,,,A*FF
$GPRMC,140702.064,A,4849.5918,N,00906.0225,E,24.28,074.85,110317,,,A*FF
$GPRMC,140702.165,A,4849.5920,N,00906.0235,E,24.17,074.85,110317,,,A*FF
$GPRMC,140702.265,A,4849.5922,N,00906.0244,E,24.07,074.85,110317,,,A*FF
$GPRMC,140702.365,A,4849.5924,N,00906.0254,E,23.95,074.85,110317,,,A*FF
$GPRMC,140702.466,A,4849.5925,N,00906.0264,E,23.84,074.85,110317,,,A*FF
$GPRMC,140702.566,A,4849.5927,N,00906.0274,E,23.74,074.85,110317,,,A*FF
$GPRMC,140702.667,A,4849.5929,N,00906.0283,E,23.63,074.85,110317,,,A*FF
$GPRMC,140702.767,A,4849.5931,N,00906.0293,E,23.52,074.85,110317,,,A*FF
$GPRMC,140702.867,A,4849.5932,N,00906.0302,E,23.41,074.85,110317,,,A*FF
$GPRMC,140702.968,A,4849.5934,N,00906.0312,E,23.30,074.85,110317,,,A*FF
$GPRMC,140703.068,A,4849.5936,N,00906.0321,E,23.19,074.85,110317,,,A*FF
$GPRMC,140703.169,A,4849.5937,N,00906.0331,E,23.08,074.85,110317,,,A*FF
$GPRMC,140703.269,A,4849.5939,N,00906.0340,E,22.97,074.85,110317,,,A*FF
$GPRMC,140703.369,A,4849.5941,N,00906.0350,E,22.86,074.85,110317,,,A*FF
$GPRMC,140703.470,A,4849.5942,N,00906.0359,E,22.75,074.85,110317,,,A*FF
$GPRMC,140703.570,A,4849.5944,N,00906.0368,E,22.64,074.85,110317,,,A*FF
$GPRMC,140703.671,A,4849.5946,N,00906.0377,E,22.53,074.85,110317,,,A*FF
$GPRMC,140703.771,A,4849.5947,N,00906.0386,E,22.42,074.85,110317,,,A*FF
$GPRMC,140703.871,A,4849.5949,N,00906.0395,E,22.31,074.85,110317,,,A*FF
$GPRMC,140703.972,A,4849.5950,N,00906.0405,E,22.20,074.85,110317,,,A*FF
$GPRMC,140704.072,A,4849.5952,N,00906.0414,E,22.10,074.85,110317,,,A*FF
$GPRMC,140704.173,A,4849.5954,N,00906.0427,E,21.98,081.12,110317,,,A*FF
$GPRMC,140704.273,A,4849.5955,N,00906.0436,E,21.87,081.12,110317,,,A*FF
$GPRMC,140704.373,A,4849.5956,N,00906.0445,E,21.77,081.12,110317,,,A*FF
$GPRMC,140704.474,A,4849.5957,N,00906.0455,E,21.66,081.12,110317,,,A*FF
$GPRMC,140704.574,A,4849.5958,N,00906.0464,E,21.54,081.12,110317,,,A*FF
$GPRMC,140704.675,A,4849.5959,N,00906.0472,E,21.44,081.12,110317,,,A*FF
$GPRMC,140704.775,A,4849.5960,N,00906.0481,E,21.33,081.12,110317,,,A*FF
$GPRMC,140704.875,A,4849.5961,N,00906.0490,E,21.21,081.12,110317,,,A*FF
$GPRMC,140704.976,A,4849.5962,N,00906.0499,E,21.11,081.12,110317,,,A*FF
$GPRMC,140705.076,A,4849.5962,N,00906.0508,E,21.00,081.12,110317,,,A*FF
$GPRMC,140705.176,A,4849.5963,N,00906.0517,E,20.89,081.12,110317,,,A*FF
$GPRMC,140705.277,A,4849.5964,N,00906.0525,E,20.78,081.12,110317,,,A*FF
$GPRMC,140705.377,A,4849.5965,N,00906.0534,E,20.67,081.12,110317,,,A*FF
$GPRMC,140705.478,A,4849.5966,N,00906.0542,E,20.56,081.12,110317,,,A*FF
$GPRMC,140705.578,A,4849.5967,N,00906.0551,E,20.45,081.12,110317,,,A*FF
$GPRMC,140705.679,A,4849.5968,N,00906.0559,E,20.34,081.12,110317,,,A*FF
$GPRMC,140705.780,A,4849.5969,N,00906.0568,E,20.23,081.12,110317,,,A*FF
$GPRMC,140705.880,A,4849.5970,N,00906.0576,E,20.12,081.12,110317,,,A*FF
$GPRMC,140705.981,A,4849.5970,N,00906.0585,E,20.01,081.12,110317,,,A*FF
$GPRMC,140706.082,A,4849.5971,N,00906.0593,E,19.90,081.12,110317,,,A*FF
$GPRMC,140706.182,A,4849.5972,N,00906.0601,E,19.79,081.12,110317,,,A*FF
$GPRMC,140706.283,A,4849.5973,N,00906.0610,E,19.69,081.12,110317,,,A*FF
$GPRMC,140706.383,A,4849.5974,N,00906.0618,E,19.57,081.12,110317,,,A*FF
$GPRMC,140706.484,A,4849.5975,N,00906.0626,E,19.47,081.12,110317,,,A*FF
$GPRMC,140706.584,A,4849.5975,N,00906.0634,E,19.36,081.12,110317,,,A*FF
$GPRMC,140706.684,A,4849.5976,N,00906.0642,E,19.24,081.12,110317,,,A*FF
$GPRMC,140706.785,A,4849.5977,N,00906.0650,E,19.14,081.12,110317,,,A*FF
$GPRMC,140706.885,A,4849.5978,N,00906.0658,E,19.03,081.12,110317,,,A*FF
$GPRMC,140706.986,A,4849.5979,N,00906.0666,E,18.92,081.12,110317,,,A*FF
$GPRMC,140707.086,A,4849.5980,N,00906.0674,E,18.81,081.12,110317,,,A*FF
$GPRMC,140707.186,A,4849.5981,N,00906.0687,E,18.70,081.82,110317,,,A*FF
$GPRMC,140707.287,A,4849.5982,N,00906.0695,E,18.59,081.82,110317,,,A*FF
$GPRMC,140707.387,A,4849.5982,N,00906.0703,E,18.48,081.82,110317,,,A*FF
$GPRMC,140707.488,A,4849.5983,N,00906.0711,E,18.37,081.82,110317,,,A*FF
$GPRMC,140707.588,A,4849.5984,N,00906.0718,E,18.26,081.82,110317,,,A*FF
$GPRMC,140707.688,A,4849.5985,N,00906.0726,E,18.15,081.82,110317,,,A*FF
$GPRMC,140707.789,A,4849.5985,N,00906.0733,E,18.04,081.82,110317,,,A*FF
$GPRMC,140707.889,A,4849.5986,N,00906.0741,E,17.93,081.82,110317,,,A*FF
$GPRMC,140707.990,A,4849.5987,N,00906.0748,E,17.82,081.82,110317,,,A*FF
$GPRMC,140708.090,A,4849.5987,N,00906.0756,E,17.72,081.82,110317,,,A*FF
$GPRMC,140708.190,A,4849.5988,N,00906.0763,E,17.60,081.82,110317,,,A*FF
$GPRMC,140708.291,A,4849.5989,N,00906.0770,E,17.49,081.82,110317,,,A*FF
$GPRMC,140708.391,A,4849.5989,N,00906.0778,E,17.39,081.82,110317,,,A*FF
$GPRMC,140708.492,A,4849.5990,N,00906.0785,E,17.28,081.82,110317,,,A*FF
$GPRMC,140708.592,A,4849.5991,N,00906.0792,E,17.17,081.82,110317,,,A*FF
$GPRMC,140708.692,A,4849.5991,N,00906.0799,E,17.06,081.82,110317,,,A*FF
$GPRMC,140708.793,A,4849.5992,N,00906.0806,E,16.95,081.82,110317,,,A*FF
$GPRMC,140708.893,A,4849.5993,N,00906.0813,E,16.84,081.82,110317,,,A*FF
$GPRMC,140708.993,A,4849.5993,N,00906.0820,E,16.73,081.82,110317,,,A*FF
$GPRMC,140709.094,A,4849.5994,N,00906.0827,E,16.62,081.82,110317,,,A*FF
$GPRMC,140709.194,A,4849.5995,N,00906.0834,E,16.51,081.82,110317,,,A*FF
$GPRMC,140709.294,A,4849.5995,N,00906.0841,E,16.40,081.82,110317,,,A*FF
$GPRMC,140709.394,A,4849.5996,N,00906.0848,E,16.29,081.82,110317,,,A*FF
$GPRMC,140709.495,A,4849.5997,N,00906.0855,E,16.18,081.82,110317,,,A*FF
$GPRMC,140709.595,A,4849.5997,N,00906.0861,E,16.07,081.82,110317,,,A*FF
$GPRMC,140709.696,A,4849.5998,N,00906.0868,E,15.96,081.82,110317,,,A*FF
$GPRMC,140709.796,A,4849.5999,N,00906.0875,E,15.85,081.82,110317,,,A*FF
$GPRMC,140709.897,A,4849.5999,N,00906.0881,E,15.75,081.82,110317,,,A*FF
$GPRMC,140709.998,A,4849.6000,N,00906.0888,E,15.63,081.82,110317,,,A*FF
$GPRMC,140710.098,A,4849.6000,N,00906.0894,E,15.52,081.82,110317,,,A*FF
$GPRMC,140710.199,A,4849.6001,N,00906.0901,E,15.42,081.82,110317,,,A*FF
$GPRMC,140710.299,A,4849.6002,N,00906.0907,E,15.31,081.82,110317,,,A*FF
$GPRMC,140710.400,A,4849.6002,N,00906.0914,E,15.19,081.82,110317,,,A*FF
$GPRMC,140710.500,A,4849.6003,N,00906.0920,E,15.09,081.82,110317,,,A*FF
$GPRMC,140710.601,A,4849.6003,N,00906.0926,E,14.98,081.82,110317,,,A*FF
$GPRMC,140710.702,A,4849.6004,N,00906.0932,E,14.87,081.82,110317,,,A*FF
$GPRMC,140710.802,A,4849.6005,N,00906.0939,E,14.76,081.82,110317,,,A*FF
$GPRMC,140710.903,A,4849.6005,N,00906.0945,E,14.65,081.82,110317,,,A*FF
$GPRMC,140711.003,A,4849.6006,N,00906.0951,E,14.54,081.82,110317,,,A*FF
$GPRMC,140711.104,A,4849.6007,N,00906.0963,E,14.43,082.23,110317,,,A*FF
$GPRMC,140711.205,A,4849.6008,N,00906.0969,E,14.32,082.23,110317,,,A*FF
$GPRMC,140711.306,A,4849.6008,N,00906.0975,E,14.21,082.23,110317,,,A*FF
$GPRMC,140711.406,A,4849.6009,N,00906.0981,E,14.10,082.23,110317,,,A*FF
$GPRMC,140711.507,A,4849.6009,N,00906.0987,E,13.99,082.23,110317,,,A*FF
$GPRMC,140711.607,A,4849.6010,N,00906.0993,E,13.88,082.23,110317,,,A*FF
$GPRMC,140711.708,A,4849.6010,N,00906.0999,E,13.77,082.23,110317,,,A*FF
$GPRMC,140711.809,A,4849.6011,N,00906.1004,E,13.66,082.23,110317,,,A*FF
$GPRMC,140711.909,A,4849.6011,N,00906.1010,E,13.55,082.23,110317,,,A*FF
$GPRMC,140712.010,A,4849.6012,N,00906.1016,E,13.44,082.23,110317,,,A*FF
$GPRMC,140712.110,A,4849.6012,N,00906.1021,E,13.34,082.23,110317,,,A*FF
$GPRMC,140712.211,A,4849.6013,N,00906.1027,E,13.22,082.23,110317,,,A*FF
$GPRMC,140712.312,A,4849.6013,N,00906.1032,E,13.12,082.23,110317,,,A*FF
$GPRMC,140712.412,A,4849.6014,N,00906.1038,E,13.01,082.23,110317,,,A*FF
$GPRMC,140712.513,A,4849.6014,N,00906.1043,E,12.89,082.23,110317,,,A*FF
$GPRMC,140712.613,A,4849.6015,N,00906.1049,E,12.79,082.23,110317,,,A*FF
$GPRMC,140712.714,A,4849.6015,N,00906.1054,E,12.68,082.23,110317,,,A*FF
$GPRMC,140712.815,A,4849.6016,N,00906.1059,E,12.57,082.23,110317,,,A*FF
$GPRMC,140712.915,A,4849.6016,N,00906.1064,E,12.46,082.23,110317,,,A*FF
$GPRMC,140713.016,A,4849.6017,N,00906.1070,E,12.35,082.23,110317,,,A*FF
$GPRMC,140713.116,A,4849.6017,N,00906.1075,E,12.24,082.23,110317,,,A*FF
$GPRMC,140713.217,A,4849.6017,N,00906.1080,E,12.13,082.23,110317,,,A*FF
$GPRMC,140713.317,A,4849.6018,N,00906.1085,E,12.02,082.23,110317,,,A*FF
$GPRMC,140713.418,A,4849.6018,N,00906.1090,E,11.91,082.23,110317,,,A*FF
$GPRMC,140713.519,A,4849.6019,N,00906.1095,E,11.80,082.23,110317,,,A*FF
$GPRMC,140713.619,A,4849.6019,N,00906.1100,E,11.69,082.23,110317,,,A*FF
$GPRMC,140713.720,A,4849.6020,N,00906.1105,E,11.58,082.23,110317,,,A*FF
$GPRMC,140713.820,A,4849.6020,N,00906.1109,E,11.47,082.23,110317,,,A*FF
$GPRMC,140713.921,A,4849.6021,N,00906.1114,E,11.37,082.23,110317,,,A*FF
$GPRMC,140714.021,A,4849.6021,N,00906.1119,E,11.25,082.23,110317,,,A*FF
$GPRMC,140714.122,A,4849.6021,N,00906.1124,E,11.14,082.23,110317,,,A*FF
$GPRMC,140714.222,A,4849.6022,N,00906.1128,E,11.04,082.23,110317,,,A*FF
$GPRMC,140714.323,A,4849.6022,N,00906.1133,E,10.93,082.23,110317,,,A*FF
$GPRMC,140714.423,A,4849.6023,N,00906.1137,E,10.82,082.23,110317,,,A*FF
$GPRMC,140714.523,A,4849.6023,N,00906.1142,E,10.71,082.23,110317,,,A*FF
$GPRMC,140714.623,A,4849.6023,N,00906.1146,E,10.60,082.23,110317,,,A*FF
$GPRMC,140714.724,A,4849.6024,N,00906.1151,E,10.49,082.23,110317,,,A*FF
$GPRMC,140714.824,A,4849.6024,N,00906.1155,E,10.38,082.23,110317,,,A*FF
$GPRMC,140714.924,A,4849.6025,N,00906.1159,E,10.27,082.23,110317,,,A*FF
$GPRMC,140715.025,A,4849.6025,N,00906.1164,E,10.16,082.23,110317,,,A*FF
$GPRMC,140715.125,A,4849.6025,N,00906.1168,E,10.05,082.23,110317,,,A*FF
$GPRMC,140715.225,A,4849.6026,N,00906.1172,E,09.94,082.23,110317,,,A*FF
$GPRMC,140715.326,A,4849.6026,N,00906.1176,E,09.83,082.23,110317,,,A*FF
$GPRMC,140715.426,A,4849.6026,N,00906.1180,E,09.72,082.23,110317,,,A*FF
$GPRMC,140715.526,A,4849.6027,N,00906.1184,E,09.61,082.23,110317,,,A*FF
$GPRMC,140715.627,A,4849.6027,N,00906.1188,E,09.50,082.23,110317,,,A*FF
$GPRMC,140715.727,A,4849.6028,N,00906.1192,E,09.40,082.23,110317,,,A*FF
$GPRMC,140715.827,A,4849.6028,N,00906.1196,E,09.28,082.23,110317,,,A*FF
$GPRMC,140715.928,A,4849.6028,N,00906.1200,E,09.17,082.23,110317,,,A*FF
$GPRMC,140716.028,A,4849.6029,N,00906.1209,E,09.07,081.12,110317,,,A*FF
$GPRMC,140716.128,A,4849.6029,N,00906.1213,E,08.96,081.12,110317,,,A*FF
$GPRMC,140716.229,A,4849.6030,N,00906.1217,E,08.84,081.12,110317,,,A*FF
$GPRMC,140716.329,A,4849.6030,N,00906.1221,E,08.74,081.12,110317,,,A*FF
$GPRMC,140716.429,A,4849.6031,N,00906.1224,E,08.63,081.12,110317,,,A*FF
$GPRMC,140716.530,A,4849.6031,N,00906.1228,E,08.52,081.12,110317,,,A*FF
$GPRMC,140716.630,A,4849.6031,N,00906.1231,E,08.41,081.12,110317,,,A*FF
$GPRMC,140716.730,A,4849.6032,N,00906.1235,E,08.30,081.12,110317,,,A*FF
$GPRMC,140716.831,A,4849.6032,N,00906.1238,E,08.19,081.12,110317,,,A*FF
$GPRMC,140716.931,A,4849.6032,N,00906.1242,E,08.08,081.12,110317,,,A*FF
$GPRMC,140717.031,A,4849.6033,N,00906.1245,E,07.97,081.12,110317,,,A*FF
$GPRMC,140717.132,A,4849.6033,N,00906.1248,E,07.86,081.12,110317,,,A*FF
$GPRMC,140717.232,A,4849.6033,N,00906.1251,E,07.75,081.12,110317,,,A*FF
$GPRMC,140717.332,A,4849.6034,N,00906.1255,E,07.64,081.12,110317,,,A*FF
$GPRMC,140717.433,A,4849.6034,N,00906.1258,E,07.53,081.12,110317,,,A*FF
$GPRMC,140717.533,A,4849.6034,N,00906.1261,E,07.42,081.12,110317,,,A*FF
$GPRMC,140717.633,A,4849.6035,N,00906.1264,E,07.31,081.12,110317,,,A*FF
$GPRMC,140717.733,A,4849.6035,N,00906.1267,E,07.20,081.12,110317,,,A*FF
$GPRMC,140717.834,A,4849.6035,N,00906.1270,E,07.10,081.12,110317,,,A*FF
$GPRMC,140717.934,A,4849.6036,N,00906.1273,E,06.99,081.12,110317,,,A*FF
$GPRMC,140718.034,A,4849.6036,N,00906.1276,E,06.87,081.12,110317,,,A*FF
$GPRMC,140718.135,A,4849.6036,N,00906.1279,E,06.77,081.12,110317,,,A*FF
$GPRMC,140718.235,A,4849.6036,N,00906.1282,E,06.66,081.12,110317,,,A*FF
$GPRMC,140718.335,A,4849.6037,N,00906.1284,E,06.54,081.12,110317,,,A*FF
$GPRMC,140718.436,A,4849.6037,N,00906.1287,E,06.44,081.12,110317,,,A*FF
$GPRMC,140718.536,A,4849.6037,N,00906.1290,E,06.33,081.12,110317,,,A*FF
$GPRMC,140718.636,A,4849.6038,N,00906.1292,E,06.22,081.12,110317,,,A*FF
$GPRMC,140718.737,A,4849.6038,N,00906.1295,E,06.11,081.12,110317,,,A*FF
$GPRMC,140718.837,A,4849.6038,N,00906.1297,E,06.00,081.12,110317,,,A*FF
$GPRMC,140718.937,A,4849.6038,N,00906.1300,E,05.89,081.12,110317,,,A*FF
$GPRMC,140719.038,A,4849.6039,N,00906.1302,E,05.78,081.12,110317,,,A*FF
$GPRMC,140719.138,A,4849.6039,N,00906.1305,E,05.67,081.12,110317,,,A*FF
$GPRMC,140719.238,A,4849.6039,N,00906.1307,E,05.56,081.12,110317,,,A*FF
$GPRMC,140719.339,A,4849.6039,N,00906.1309,E,05.45,081.12,110317,,,A*FF
$GPRMC,140719.439,A,4849.6040,N,00906.1311,E,05.34,081.12,110317,,,A*FF
$GPRMC,140719.539,A,4849.6040,N,00906.1314,E,05.23,081.12,110317,,,A*FF
$GPRMC,140719.640,A,4849.6040,N,00906.1316,E,05.12,081.12,110317,,,A*FF
$GPRMC,140719.740,A,4849.6040,N,00906.1318,E,05.02,081.12,110317,,,A*FF
$GPRMC,140719.840,A,4849.6040,N,00906.1320,E,04.90,081.12,110317,,,A*FF
$GPRMC,140719.941,A,4849.6041,N,00906.1322,E,04.79,081.12,110317,,,A*FF
$GPRMC,140720.041,A,4849.6041,N,00906.1324,E,04.69,081.12,110317,,,A*FF
$GPRMC,140720.141,A,4849.6041,N,00906.1326,E,04.58,081.12,110317,,,A*FF
$GPRMC,140720.242,A,4849.6041,N,00906.1328,E,04.47,081.12,110317,,,A*FF
$GPRMC,140720.342,A,4849.6041,N,00906.1330,E,04.36,081.12,110317,,,A*FF
$GPRMC,140720.442,A,4849.6042,N,00906.1331,E,04.25,081.12,110317,,,A*FF
$GPRMC,140720.542,A,4849.6042,N,00906.1333,E,04.14,081.12,110317,,,A*FF
$GPRMC,140720.643,A,4849.6042,N,00906.1335,E,04.03,081.12,110317,,,A*FF
$GPRMC,140720.743,A,4849.6042,N,00906.1337,E,03.92,081.12,110317,,,A*FF
$GPRMC,140720.844,A,4849.6042,N,00906.1338,E,03.81,081.12,110317,,,A*FF
$GPRMC,140720.944,A,4849.6042,N,00906.1340,E,03.70,081.12,110317,,,A*FF
$GPRMC,140721.044,A,4849.6043,N,00906.1341,E,03.59,081.12,110317,,,A*FF
$GPRMC,140721.145,A,4849.6043,N,00906.1343,E,03.48,081.12,110317,,,A*FF
$GPRMC,140721.245,A,4849.6043,N,00906.1344,E,03.37,081.12,110317,,,A*FF
$GPRMC,140721.345,A,4849.6043,N,00906.1346,E,03.26,081.12,110317,,,A*FF
$GPRMC,140721.445,A,4849.6043,N,00906.1347,E,03.15,081.12,110317,,,A*FF
$GPRMC,140721.546,A,4849.6043,N,00906.1348,E,03.05,081.12,110317,,,A*FF
$GPRMC,140721.646,A,4849.6043,N,00906.1349,E,02.93,081.12,110317,,,A*FF
$GPRMC,140721.746,A,4849.6044,N,00906.1351,E,02.82,081.12,110317,,,A*FF
$GPRMC,140721.847,A,4849.6044,N,00906.1352,E,02.72,081.12,110317,,,A*FF
$GPRMC,140721.947,A,4849.6044,N,00906.1353,E,02.61,081.12,110317,,,A*FF
$GPRMC,140722.047,A,4849.6044,N,00906.1354,E,02.49,081.12,110317,,,A*FF
$GPRMC,140722.148,A,4849.6044,N,00906.1355,E,02.39,081.12,110317,,,A*FF
$GPRMC,140722.248,A,4849.6044,N,00906.1356,E,02.28,081.12,110317,,,A*FF
$GPRMC,140722.349,A,4849.6044,N,00906.1357,E,02.17,081.12,110317,,,A*FF
$GPRMC,140722.449,A,4849.6044,N,00906.1358,E,02.06,081.12,110317,,,A*FF
$GPRMC,140722.549,A,4849.6044,N,00906.1359,E,01.95,081.12,110317,,,A*FF
$GPRMC,140722.650,A,4849.6044,N,00906.1359,E,01.84,081.12,110317,,,A*FF
$GPRMC,140722.750,A,4849.6045,N,00906.1360,E,01.73,081.12,110317,,,A*FF
$GPRMC,140722.850,A,4849.6045,N,00906.1361,E,01.62,081.12,110317,,,A*FF
$GPRMC,140722.951,A,4849.6045,N,00906.1361,E,01.51,081.12,110317,,,A*FF
$GPRMC,140723.051,A,4849.6045,N,00906.1362,E,01.40,081.12,110317,,,A*FF
$GPRMC,140723.151,A,4849.6045,N,00906.1363,E,01.29,081.12,110317,,,A*FF
$GPRMC,140723.252,A,4849.6045,N,00906.1363,E,01.18,081.12,110317,,,A*FF
$GPRMC,140723.352,A,4849.6045,N,00906.1364,E,01.07,081.12,110317,,,A*FF
$GPRMC,140723.452,A,4849.6045,N,00906.1364,E,00.96,081.12,110317,,,A*FF
$GPRMC,140723.553,A,4849.6045,N,00906.1364,E,00.85,081.12,110317,,,A*FF
$GPRMC,140723.653,A,4849.6045,N,00906.1365,E,00.75,081.12,110317,,,A*FF
$GPRMC,140723.753,A,4849.6045,N,00906.1365,E,00.64,081.12,110317,,,A*FF
$GPRMC,140723.854,A,4849.6045,N,00906.1365,E,00.52,081.12,110317,,,A*FF
$GPRMC,140723.954,A,4849.6045,N,00906.1365,E,00.42,081.12,110317,,,A*FF
$GPRMC,140724.054,A,4849.6045,N,00906.1366,E,00.31,081.12,110317,,,A*FF
$GPRMC,140724.155,A,4849.6045,N,00906.1366,E,00.19,081.12,110317,,,A*FF
$GPRMC,140724.255,A,4849.6045,N,00906.1366,E,00.09,081.12,110317,,,A*FF
$GPRMC,140724.355,A,4849.6045,N,00906.1366,E,27.00,081.12,110317,,,A*FF
$GPRMC,140724.455,A,4849.6045,N,00906.1366,E,27.00,081.12,110317,,,A*FF
$GPRMC,140724.555,A,4849.6045,N,00906.1366,E,27.00,081.12,110317,,,A*FF
$GPRMC,140724.655,A,4849.6045,N,00906.1366,E,27.00,081.12,110317,,,A*FF
$GPRMC,140724.755,A,4849.6045,N,00906.1366,E,27.00,081.12,110317,,,A*FF
$GPRMC,140724.855,A,4849.6045,N,00906.1366,E,27.00,081.12,110317,,,A*FF
$GPRMC,140724.955,A,4849.6045,N,00906.1366,E,27.00,081.12,110317,,,A*FF
$GPRMC,140725.055,A,4849.6045,N,00906.1366,E,27.00,081.12,110317,,,A*FF
$GPRMC,140725.155,A,4849.6045,N,00906.1366,E,27.00,081.12,110317,,,A*FF
$GPRMC,140725.255,A,4849.6045,N,00906.1366,E,27.00,081.12,110317,,,A*FF
$GPRMC,140725.355,A,4849.6045,N,00906.1366,E,27.00,081.12,110317,,,A*FF
$GPRMC,140725.455,A,4849.6045,N,00906.1366,E,27.00,081.12,110317,,,A*FF
$GPRMC,140725.555,A,4849.6045,N,00906.1366,E,27.00,081.12,110317,,,A*FF
$GPRMC,140725.655,A,4849.6045,N,00906.1366,E,27.00,081.12,110317,,,A*FF
$GPRMC,140725.755,A,4849.6045,N,00906.1366,E,27.00,081.12,110317,,,A*FF
$GPRMC,140725.855,A,4849.6045,N,00906.1366,E,27.00,081.12,110317,,,A*FF
$GPRMC,140725.955,A,4849.6045,N,00906.1366,E,27.00,081.12,110317,,,A*FF
$GPRMC,140726.055,A,4849.6045,N,00906.1366,E,27.00,081.12,110317,,,A*FF
$GPRMC,140726.155,A,4849.6045,N,00906.1366,E,27.00,081.12,110317,,,A*FF
$GPRMC,140726.255,A,4849.6045,N,00906.1366,E,27.00,081.12,110317,,,A*FF
$GPRMC,140726.355,A,4849.6045,N,00906.1366,E,27.00,081.12,110317,,,A*FF
$GPRMC,140726.455,A,4849.6045,N,00906.1366,E,27.00,081.12,110317,,,A*FF
$GPRMC,140726.555,A,4849.6045,N,00906.1366,E,27.00,081.12,110317,,,A*FF
$GPRMC,140726.655,A,4849.6045,N,00906.1366,E,27.00,081.12,110317,,,A*FF
$GPRMC,140726.755,A,4849.6045,N,00906.1366,E,27.00,081.12,110317,,,A*FF
$GPRMC,140726.855,A,4849.6045,N,00906.1366,E,27.00,081.12,110317,,,A*FF
$GPRMC,140726.955,A,4849.6045,N,00906.1366,E,27.00,081.12,110317,,,A*FF
$GPRMC,140727.055,A,4849.6045,N,00906.1366,E,27.00,081.12,110317,,,A*FF
$GPRMC,140727.155,A,4849.6045,N,00906.1366,E,27.00,081.12,110317,,,A*FF
$GPRMC,140727.255,A,4849.6045,N,00906.1366,E,27.00,081.12,110317,,,A*FF
$GPRMC,140727.355,A,4849.6045,N,00906.1366,E,27.00,081.12,110317,,,A*FF
$GPRMC,140727.455,A,4849.6045,N,00906.1366,E,27.00,081.12,110317,,,A*FF
$GPRMC,140727.556,A,4849.6045,N,00906.1366,E,27.00,081.12,110317,,,A*FF
$GPRMC,140727.656,A,4849.6045,N,00906.1366,E,27.00,081.12,110317,,,A*FF
$GPRMC,140727.756,A,4849.6045,N,00906.1366,E,27.00,081.12,110317,,,A*FF
$GPRMC,140727.856,A,4849.6045,N,00906.1366,E,27.00,081.12,110317,,,A*FF
$GPRMC,140727.956,A,4849.6045,N,00906.1366,E,27.00,081.12,110317,,,A*FF
$GPRMC,140728.056,A,4849.6045,N,00906.1366,E,27.00,081.12,110317,,,A*FF
$GPRMC,140728.156,A,4849.6045,N,00906.1366,E,27.00,081.12,110317,,,A*FF
$GPRMC,140728.256,A,4849.6045,N,00906.1366,E,27.00,081.12,110317,,,A*FF
$GPRMC,140728.356,A,4849.6045,N,00906.1366,E,27.00,081.12,110317,,,A*FF
$GPRMC,140728.456,A,4849.6045,N,00906.1366,E,27.00,081.12,110317,,,A*FF
$GPRMC,140728.556,A,4849.6045,N,00906.1366,E,27.00,081.12,110317,,,A*FF
$GPRMC,140728.656,A,4849.6045,N,00906.1366,E,27.00,081.12,110317,,,A*FF
$GPRMC,140728.756,A,4849.6045,N,00906.1366,E,27.00,081.12,110317,,,A*FF
$GPRMC,140728.856,A,4849.6045,N,00906.1366,E,27.00,081.12,110317,,,A*FF
$GPRMC,140728.956,A,4849.6045,N,00906.1366,E,27.00,081.12,110317,,,A*FF
$GPRMC,140729.056,A,4849.6045,N,00906.1366,E,27.00,081.12,110317,,,A*FF
$GPRMC,140729.156,A,4849.6045,N,00906.1366,E,27.00,081.12,110317,,,A*FF
$GPRMC,140729.256,A,4849.6045,N,00906.1366,E,27.00,081.12,110317,,,A*FF
$GPRMC,140729.356,A,4849.6045,N,00906.1366,E,27.00,081.12,110317,,,A*FF
$GPRMC,140729.456,A,4849.6045,N,00906.1366,E,27.00,081.12,110317,,,A*FF
$GPRMC,140729.556,A,4849.6045,N,00906.1366,E,27.00,081.12,110317,,,A*FF
$GPRMC,140729.656,A,4849.6045,N,00906.1366,E,27.00,081.12,110317,,,A*FF
$GPRMC,140729.756,A,4849.6045,N,00906.1366,E,27.00,081.12,110317,,,A*FF
$GPRMC,140729.856,A,4849.6045,N,00906.1366,E,27.00,081.12,110317,,,A*FF
$GPRMC,140729.956,A,4849.6045,N,00906.1366,E,27.00,081.12,110317,,,A*FF
$GPRMC,140730.056,A,4849.6045,N,00906.1366,E,27.00,081.12,110317,,,A*FF
$GPRMC,140730.156,A,4849.6045,N,00906.1366,E,27.00,081.12,110317,,,A*FF
$GPRMC,140730.256,A,4849.6045,N,00906.1366,E,27.00,081.12,110317,,,A*FF
$GPRMC,140730.356,A,4849.6045,N,00906.1366,E,27.00,081.12,110317,,,A*FF
$GPRMC,140730.456,A,4849.6045,N,00906.1366,E,27.00,081.12,110317,,,A*FF
$GPRMC,140730.556,A,4849.6045,N,00906.1366,E,27.00,081.12,110317,,,A*FF
$GPRMC,140730.656,A,4849.6045,N,00906.1366,E,27.00,081.12,110317,,,A*FF
$GPRMC,140730.756,A,4849.6045,N,00906.1366,E,27.00,081.12,110317,,,A*FF
$GPRMC,140730.856,A,4849.6045,N,00906.1366,E,27.00,081.12,110317,,,A*FF
$GPRMC,140730.956,A,4849.6045,N,00906.1366,E,27.00,081.12,110317,,,A*FF
$GPRMC,140731.056,A,4849.6045,N,00906.1366,E,27.00,081.12,110317,,,A*FF
$GPRMC,140731.156,A,4849.6045,N,00906.1366,E,27.00,081.12,110317,,,A*FF
$GPRMC,140731.256,A,4849.6045,N,00906.1366,E,27.00,081.12,110317,,,A*FF
$GPRMC,140731.356,A,4849.6045,N,00906.1366,E,27.00,081.12,110317,,,A*FF
$GPRMC,140731.456,A,4849.6045,N,00906.1366,E,27.00,081.12,110317,,,A*FF
$GPRMC,140731.556,A,4849.6045,N,00906.1366,E,27.00,081.12,110317,,,A*FF
$GPRMC,140731.656,A,4849.6045,N,00906.1366,E,27.00,081.12,110317,,,A*FF
$GPRMC,140731.756,A,4849.6045,N,00906.1366,E,27.00,081.12,110317,,,A*FF
$GPRMC,140731.856,A,4849.6045,N,00906.1366,E,27.00,081.12,110317,,,A*FF
$GPRMC,140731.956,A,4849.6045,N,00906.1366,E,27.00,081.12,110317,,,A*FF
$GPRMC,140732.056,A,4849.6045,N,00906.1366,E,27.00,081.12,110317,,,A*FF
$GPRMC,140732.156,A,4849.6045,N,00906.1366,E,27.00,081.12,110317,,,A*FF
$GPRMC,140732.256,A,4849.6045,N,00906.1366,E,27.00,081.12,110317,,,A*FF
$GPRMC,140732.356,A,4849.6045,N,00906.1366,E,27.00,081.12,110317,,,A*FF
$GPRMC,140732.456,A,4849.6045,N,00906.1366,E,27.00,081.12,110317,,,A*FF
$GPRMC,140732.556,A,4849.6045,N,00906.1366,E,27.00,081.12,110317,,,A*FF
$GPRMC,140732.656,A,4849.6045,N,00906.1366,E,27.00,081.12,110317,,,A*FF
$GPRMC,140732.756,A,4849.6045,N,00906.1366,E,27.00,081.12,110317,,,A*FF
$GPRMC,140732.856,A,4849.6045,N,00906.1366,E,27.00,081.12,110317,,,A*FF
$GPRMC,140732.956,A,4849.6045,N,00906.1366,E,27.00,081.12,110317,,,A*FF
$GPRMC,140733.056,A,4849.6045,N,00906.1366,E,27.00,081.12,110317,,,A*FF
$GPRMC,140733.156,A,4849.6045,N,00906.1366,E,27.00,081.12,110317,,,A*FF
$GPRMC,140733.256,A,4849.6045,N,00906.1366,E,27.00,081.12,110317,,,A*FF
$GPRMC,140733.356,A,4849.6045,N,00906.1366,E,27.00,081.12,110317,,,A*FF
$GPRMC,140733.456,A,4849.6045,N,00906.1366,E,27.00,081.12,110317,,,A*FF
$GPRMC,140733.556,A,4849.6045,N,00906.1366,E,27.00,081.12,110317,,,A*FF
$GPRMC,140733.656,A,4849.6045,N,00906.1366,E,27.00,081.12,110317,,,A*FF
$GPRMC,140733.756,A,4849.6045,N,00906.1366,E,27.00,081.12,110317,,,A*FF
$GPRMC,140733.856,A,4849.6045,N,00906.1366,E,27.00,081.12,110317,,,A*FF
$GPRMC,140733.956,A,4849.6045,N,00906.1366,E,27.00,081.12,110317,,,A*FF
$GPRMC,140734.056,A,4849.6045,N,00906.1366,E,27.00,081.12,110317,,,A*FF
$GPRMC,140734.156,A,4849.6045,N,00906.1366,E,27.00,081.12,110317,,,A*FF
$GPRMC,140734.256,A,4849.6045,N,00906.1366,E,27.00,081.12,110317,,,A*FF
$GPRMC,140734.356,A,4849.6045,N,00906.1366,E,27.00,081.12,110317,,,A*FF
$GPRMC,140734.456,A,4849.6045,N,00906.1366,E,27.00,081.12,110317,,,A*FF
$GPRMC,140734.556,A,4849.6045,N,00906.1366,E,27.00,081.12,110317,,,A*FF
$GPRMC,140734.656,A,4849.6045,N,00906.1366,E,27.00,081.12,110317,,,A*FF
$GPRMC,140734.756,A,4849.6045,N,00906.1366,E,27.00,081.12,110317,,,A*FF
$GPRMC,140734.856,A,4849.6045,N,00906.1366,E,27.00,081.12,110317,,,A*FF
$GPRMC,140734.956,A,4849.6045,N,00906.1366,E,27.00,081.12,110317,,,A*FF
$GPRMC,140735.056,A,4849.6045,N,00906.1366,E,27.00,081.12,110317,,,A*FF
$GPRMC,140735.156,A,4849.6045,N,00906.1366,E,27.00,081.12,110317,,,A*FF
$GPRMC,140735.256,A,4849.6045,N,00906.1366,E,27.00,081.12,110317,,,A*FF
$GPRMC,140735.356,A,4849.6045,N,00906.1366,E,27.00,081.12,110317,,,A*FF
$GPRMC,140735.456,A,4849.6045,N,00906.1366,E,27.00,081.12,110317,,,A*FF
$GPRMC,140735.556,A,4849.6045,N,00906.1366,E,27.00,081.12,110317,,,A*FF
$GPRMC,140735.656,A,4849.6045,N,00906.1366,E,27.00,081.12,110317,,,A*FF
$GPRMC,140735.756,A,4849.6045,N,00906.1366,E,27.00,081.12,110317,,,A*FF
$GPRMC,140735.856,A,4849.6045,N,00906.1366,E,27.00,081.12,110317,,,A*FF
$GPRMC,140735.956,A,4849.6045,N,00906.1366,E,27.00,081.12,110317,,,A*FF
$GPRMC,140736.056,A,4849.6045,N,00906.1366,E,27.00,081.12,110317,,,A*FF
$GPRMC,140736.156,A,4849.6045,N,00906.1366,E,27.00,081.12,110317,,,A*FF
$GPRMC,140736.256,A,4849.6045,N,00906.1366,E,27.00,081.12,110317,,,A*FF
$GPRMC,140736.356,A,4849.6045,N,00906.1366,E,27.00,081.12,110317,,,A*FF
$GPRMC,140736.456,A,4849.6045,N,00906.1366,E,27.00,081.12,110317,,,A*FF
$GPRMC,140736.556,A,4849.6045,N,00906.1366,E,27.00,081.12,110317,,,A*FF
$GPRMC,140736.657,A,4849.6045,N,00906.1366,E,27.00,081.12,110317,,,A*FF
$GPRMC,140736.757,A,4849.6045,N,00906.1366,E,27.00,081.12,110317,,,A*FF
$GPRMC,140736.857,A,4849.6045,N,00906.1366,E,27.00,081.12,110317,,,A*FF
$GPRMC,140736.957,A,4849.6045,N,00906.1366,E,27.00,081.12,110317,,,A*FF
$GPRMC,140737.057,A,4849.6045,N,00906.1366,E,27.00,081.12,110317,,,A*FF
$GPRMC,140737.157,A,4849.6045,N,00906.1366,E,27.00,081.12,110317,,,A*FF
$GPRMC,140737.257,A,4849.6045,N,00906.1366,E,27.00,081.12,110317,,,A*FF
$GPRMC,140737.357,A,4849.6045,N,00906.1366,E,27.00,081.12,110317,,,A*FF
$GPRMC,140737.457,A,4849.6045,N,00906.1366,E,27.00,081.12,110317,,,A*FF
$GPRMC,140737.557,A,4849.6045,N,00906.1366,E,27.00,081.12,110317,,,A*FF
$GPRMC,140737.657,A,4849.6045,N,00906.1366,E,27.00,081.12,110317,,,A*FF
$GPRMC,140737.757,A,4849.6045,N,00906.1366,E,27.00,081.12,110317,,,A*FF
$GPRMC,140737.857,A,4849.6045,N,00906.1366,E,27.00,081.12,110317,,,A*FF
$GPRMC,140737.957,A,4849.6045,N,00906.1366,E,27.00,081.12,110317,,,A*FF
$GPRMC,140738.057,A,4849.6045,N,00906.1366,E,27.00,081.12,110317,,,A*FF
$GPRMC,140738.157,A,4849.6045,N,00906.1366,E,27.00,081.12,110317,,,A*FF
$GPRMC,140738.257,A,4849.6045,N,00906.1366,E,27.00,081.12,110317,,,A*FF
$GPRMC,140738.357,A,4849.6045,N,00906.1366,E,27.00,081.12,110317,,,A*FF
$GPRMC,140738.457,A,4849.6045,N,00906.1366,E,27.00,081.12,110317,,,A*FF
$GPRMC,140738.557,A,4849.6045,N,00906.1366,E,27.00,081.12,110317,,,A*FF
$GPRMC,140738.657,A,4849.6045,N,00906.1366,E,27.00,081.12,110317,,,A*FF
$GPRMC,140738.757,A,4849.6045,N,00906.1366,E,27.00,081.12,110317,,,A*FF
$GPRMC,140738.857,A,4849.6045,N,00906.1366,E,27.00,081.12,110317,,,A*FF
$GPRMC,140738.957,A,4849.6045,N,00906.1366,E,27.00,081.12,110317,,,A*FF
$GPRMC,140739.057,A,4849.6045,N,00906.1366,E,27.00,081.12,110317,,,A*FF
$GPRMC,140739.157,A,4849.6045,N,00906.1366,E,27.00,081.12,110317,,,A*FF
$GPRMC,140739.257,A,4849.6045,N,00906.1366,E,27.00,081.12,110317,,,A*FF
$GPRMC,140739.357,A,4849.6045,N,00906.1366,E,27.00,081.12,110317,,,A*FF
$GPRMC,140739.457,A,4849.6045,N,00906.1366,E,27.00,081.12,110317,,,A*FF
$GPRMC,140739.557,A,4849.6045,N,00906.1366,E,27.00,081.12,110317,,,A*FF
$GPRMC,140739.657,A,4849.6045,N,00906.1366,E,27.00,081.12,110317,,,A*FF
$GPRMC,140739.757,A,4849.6045,N,00906.1366,E,27.00,081.12,110317,,,A*FF
$GPRMC,140739.857,A,4849.6045,N,00906.1366,E,27.00,081.12,110317,,,A*FF
$GPRMC,140739.957,A,4849.6045,N,00906.1366,E,27.00,081.12,110317,,,A*FF
$GPRMC,140740.057,A,4849.6045,N,00906.1366,E,27.00,081.12,110317,,,A*FF
$GPRMC,140740.157,A,4849.6045,N,00906.1366,E,27.00,081.12,110317,,,A*FF
$GPRMC,140740.257,A,4849.6045,N,00906.1366,E,27.00,081.12,110317,,,A*FF
$GPRMC,140740.357,A,4849.6045,N,00906.1366,E,27.00,081.12,110317,,,A*FF
$GPRMC,140740.457,A,4849.6045,N,00906.1366,E,27.00,081.12,110317,,,A*FF
$GPRMC,140740.557,A,4849.6045,N,00906.1366,E,27.00,081.12,110317,,,A*FF
$GPRMC,140740.657,A,4849.6045,N,00906.1366,E,27.00,081.12,110317,,,A*FF
$GPRMC,140740.757,A,4849.6045,N,00906.1366,E,27.00,081.12,110317,,,A*FF
$GPRMC,140740.857,A,4849.6045,N,00906.1366,E,27.00,081.12,110317,,,A*FF
$GPRMC,140740.957,A,4849.6045,N,00906.1366,E,27.00,081.12,110317,,,A*FF
$GPRMC,140741.057,A,4849.6045,N,00906.1366,E,27.00,081.12,110317,,,A*FF
$GPRMC,140741.157,A,4849.6045,N,00906.1366,E,27.00,081.12,110317,,,A*FF
$GPRMC,140741.257,A,4849.6045,N,00906.1366,E,27.00,081.12,110317,,,A*FF
$GPRMC,140741.357,A,4849.6045,N,00906.1366,E,27.00,081.12,110317,,,A*FF
$GPRMC,140741.457,A,4849.6045,N,00906.1366,E,27.00,081.12,110317,,,A*FF
$GPRMC,140741.557,A,4849.6045,N,00906.1366,E,27.00,081.12,110317,,,A*FF
$GPRMC,140741.657,A,4849.6045,N,00906.1366,E,27.00,081.12,110317,,,A*FF
$GPRMC,140741.757,A,4849.6045,N,00906.1366,E,27.00,081.12,110317,,,A*FF
$GPRMC,140741.857,A,4849.6045,N,00906.1366,E,27.00,081.12,110317,,,A*FF
$GPRMC,140741.957,A,4849.6045,N,00906.1366,E,27.00,081.12,110317,,,A*FF
$GPRMC,140742.057,A,4849.6045,N,00906.1366,E,27.00,081.12,110317,,,A*FF
$GPRMC,140742.157,A,4849.6045,N,00906.1366,E,27.00,081.12,110317,,,A*FF
$GPRMC,140742.257,A,4849.6045,N,00906.1366,E,27.00,081.12,110317,,,A*FF
$GPRMC,140742.357,A,4849.6045,N,00906.1366,E,27.00,081.12,110317,,,A*FF
$GPRMC,140742.457,A,4849.6045,N,00906.1366,E,27.00,081.12,110317,,,A*FF
$GPRMC,140742.557,A,4849.6045,N,00906.1366,E,27.00,081.12,110317,,,A*FF
$GPRMC,140742.657,A,4849.6045,N,00906.1366,E,27.00,081.12,110317,,,A*FF
$GPRMC,140742.757,A,4849.6045,N,00906.1366,E,27.00,081.12,110317,,,A*FF
$GPRMC,140742.857,A,4849.6045,N,00906.1366,E,27.00,081.12,110317,,,A*FF
$GPRMC,140742.957,A,4849.6045,N,00906.1366,E,27.00,081.12,110317,,,A*FF
$GPRMC,140743.057,A,4849.6045,N,00906.1366,E,27.00,081.12,110317,,,A*FF
$GPRMC,140743.157,A,4849.6045,N,00906.1366,E,27.00,081.12,110317,,,A*FF
$GPRMC,140743.257,A,4849.6045,N,00906.1366,E,27.00,081.12,110317,,,A*FF
$GPRMC,140743.357,A,4849.6045,N,00906.1366,E,27.00,081.12,110317,,,A*FF
$GPRMC,140743.457,A,4849.6045,N,00906.1366,E,27.00,081.12,110317,,,A*FF
$GPRMC,140743.557,A,4849.6045,N,00906.1366,E,27.00,081.12,110317,,,A*FF
$GPRMC,140743.657,A,4849.6045,N,00906.1366,E,27.00,081.12,110317,,,A*FF
$GPRMC,140743.757,A,4849.6045,N,00906.1366,E,27.00,081.12,110317,,,A*FF
$GPRMC,140743.857,A,4849.6045,N,00906.1366,E,27.00,081.12,110317,,,A*FF
$GPRMC,140743.957,A,4849.6045,N,00906.1366,E,27.00,081.12,110317,,,A*FF
$GPRMC,140744.057,A,4849.6045,N,00906.1366,E,27.00,081.12,110317,,,A*FF
$GPRMC,140744.157,A,4849.6045,N,00906.1366,E,27.00,081.12,110317,,,A*FF
$GPRMC,140744.257,A,4849.6045,N,00906.1366,E,27.00,081.12,110317,,,A*FF
$GPRMC,140744.357,A,4849.6045,N,00906.1366,E,27.00,081.12,110317,,,A*FF
$GPRMC,140744.457,A,4849.6045,N,00906.1366,E,27.00,081.12,110317,,,A*FF
$GPRMC,140744.557,A,4849.6045,N,00906.1366,E,27.00,081.12,110317,,,A*FF
$GPRMC,140744.657,A,4849.6045,N,00906.1366,E,27.00,081.12,110317,,,A*FF
$GPRMC,140744.757,A,4849.6045,N,00906.1366,E,27.00,081.12,110317,,,A*FF
$GPRMC,140744.857,A,4849.6045,N,00906.1366,E,27.00,081.12,110317,,,A*FF
$GPRMC,140744.957,A,4849.6045,N,00906.1366,E,27.00,081.12,110317,,,A*FF
$GPRMC,140745.057,A,4849.6045,N,00906.1366,E,27.00,081.12,110317,,,A*FF
$GPRMC,140745.157,A,4849.6045,N,00906.1366,E,27.00,081.12,110317,,,A*FF
$GPRMC,140745.257,A,4849.6045,N,00906.1366,E,27.00,081.12,110317,,,A*FF
$GPRMC,140745.357,A,4849.6045,N,00906.1366,E,27.00,081.12,110317,,,A*FF
$GPRMC,140745.457,A,4849.6045,N,00906.1366,E,27.00,081.12,110317,,,A*FF
$GPRMC,140745.557,A,4849.6045,N,00906.1366,E,27.00,081.12,110317,,,A*FF
$GPRMC,140745.657,A,4849.6045,N,00906.1366,E,27.00,081.12,110317,,,A*FF
$GPRMC,140745.757,A,4849.6045,N,00906.1366,E,27.00,081.12,110317,,,A*FF
$GPRMC,140745.857,A,4849.6045,N,00906.1366,E,27.00,081.12,110317,,,A*FF
$GPRMC,140745.957,A,4849.6045,N,00906.1366,E,27.00,081.12,110317,,,A*FF
$GPRMC,140746.057,A,4849.6045,N,00906.1366,E,27.00,081.12,110317,,,A*FF
$GPRMC,140746.157,A,4849.6045,N,00906.1366,E,27.00,081.12,110317,,,A*FF
$GPRMC,140746.258,A,4849.6045,N,00906.1366,E,27.00,081.12,110317,,,A*FF
$GPRMC,140746.358,A,4849.6045,N,00906.1366,E,27.00,081.12,110317,,,A*FF
$GPRMC,140746.458,A,4849.6045,N,00906.1366,E,27.00,081.12,110317,,,A*FF
$GPRMC,140746.558,A,4849.6045,N,00906.1366,E,27.00,081.12,110317,,,A*FF
$GPRMC,140746.658,A,4849.6045,N,00906.1366,E,27.00,081.12,110317,,,A*FF
$GPRMC,140746.758,A,4849.6045,N,00906.1366,E,27.00,081.12,110317,,,A*FF
$GPRMC,140746.858,A,4849.6045,N,00906.1366,E,27.00,081.12,110317,,,A*FF
$GPRMC,140746.958,A,4849.6045,N,00906.1366,E,27.00,081.12,110317,,,A*FF
$GPRMC,140747.058,A,4849.6045,N,00906.1366,E,27.00,081.12,110317,,,A*FF
$GPRMC,140747.158,A,4849.6045,N,00906.1366,E,27.00,081.12,110317,,,A*FF
$GPRMC,140747.258,A,4849.6045,N,00906.1366,E,27.00,081.12,110317,,,A*FF
$GPRMC,140747.358,A,4849.6045,N,00906.1366,E,27.00,081.12,110317,,,A*FF
$GPRMC,140747.458,A,4849.6045,N,00906.1366,E,27.00,081.12,110317,,,A*FF
$GPRMC,140747.558,A,4849.6045,N,00906.1366,E,27.00,081.12,110317,,,A*FF
$GPRMC,140747.658,A,4849.6045,N,00906.1366,E,27.00,081.12,110317,,,A*FF
$GPRMC,140747.758,A,4849.6045,N,00906.1366,E,27.00,081.12,110317,,,A*FF
$GPRMC,140747.858,A,4849.6045,N,00906.1366,E,27.00,081.12,110317,,,A*FF
$GPRMC,140747.958,A,4849.6045,N,00906.1366,E,27.00,081.12,110317,,,A*FF
$GPRMC,140748.058,A,4849.6045,N,00906.1366,E,27.00,081.12,110317,,,A*FF
$GPRMC,140748.158,A,4849.6045,N,00906.1366,E,27.00,081.12,110317,,,A*FF
$GPRMC,140748.258,A,4849.6045,N,00906.1366,E,27.00,081.12,110317,,,A*FF
$GPRMC,140748.358,A,4849.6045,N,00906.1366,E,27.00,081.12,110317,,,A*FF
$GPRMC,140748.458,A,4849.6045,N,00906.1366,E,27.00,081.12,110317,,,A*FF
$GPRMC,140748.558,A,4849.6045,N,00906.1366,E,27.00,081.12,110317,,,A*FF
$GPRMC,140748.658,A,4849.6045,N,00906.1366,E,27.00,081.12,110317,,,A*FF
$GPRMC,140748.758,A,4849.6045,N,00906.1366,E,27.00,081.12,110317,,,A*FF
$GPRMC,140748.858,A,4849.6045,N,00906.1366,E,27.00,081.12,110317,,,A*FF
$GPRMC,140748.958,A,4849.6045,N,00906.1366,E,27.00,081.12,110317,,,A*FF
$GPRMC,140749.058,A,4849.6045,N,00906.1366,E,27.00,081.12,110317,,,A*FF
$GPRMC,140749.158,A,4849.6045,N,00906.1366,E,27.00,081.12,110317,,,A*FF
$GPRMC,140749.258,A,4849.6045,N,00906.1366,E,27.00,081.12,110317,,,A*FF
$GPRMC,140749.358,A,4849.6045,N,00906.1366,E,27.00,081.12,110317,,,A*FF
$GPRMC,140749.458,A,4849.6045,N,00906.1366,E,27.00,081.12,110317,,,A*FF
$GPRMC,140749.558,A,4849.6045,N,00906.1366,E,27.00,081.12,110317,,,A*FF
$GPRMC,140749.658,A,4849.6045,N,00906.1366,E,27.00,081.12,110317,,,A*FF
$GPRMC,140749.758,A,4849.6045,N,00906.1366,E,27.00,081.12,110317,,,A*FF
$GPRMC,140749.858,A,4849.6045,N,00906.1366,E,27.00,081.12,110317,,,A*FF
$GPRMC,140749.958,A,4849.6045,N,00906.1366,E,27.00,081.12,110317,,,A*FF
$GPRMC,140750.058,A,4849.6045,N,00906.1366,E,27.00,081.12,110317,,,A*FF
$GPRMC,140750.158,A,4849.6045,N,00906.1366,E,27.00,081.12,110317,,,A*FF
$GPRMC,140750.258,A,4849.6045,N,00906.1366,E,27.00,081.12,110317,,,A*FF
$GPRMC,140750.358,A,4849.6045,N,00906.1366,E,27.00,081.12,110317,,,A*FF
$GPRMC,140750.458,A,4849.6045,N,00906.1366,E,27.00,081.12,110317,,,A*FF
$GPRMC,140750.558,A,4849.6045,N,00906.1366,E,27.00,081.12,110317,,,A*FF
$GPRMC,140750.658,A,4849.6045,N,00906.1366,E,27.00,081.12,110317,,,A*FF
$GPRMC,140750.758,A,4849.6045,N,00906.1366,E,27.00,081.12,110317,,,A*FF
$GPRMC,140750.858,A,4849.6045,N,00906.1366,E,27.00,081.12,110317,,,A*FF
$GPRMC,140750.958,A,4849.6045,N,00906.1366,E,27.00,081.12,110317,,,A*FF
$GPRMC,140751.058,A,4849.6045,N,00906.1366,E,27.00,081.12,110317,,,A*FF
$GPRMC,140751.158,A,4849.6045,N,00906.1366,E,27.00,081.12,110317,,,A*FF
$GPRMC,140751.258,A,4849.6045,N,00906.1366,E,27.00,081.12,110317,,,A*FF
$GPRMC,140751.358,A,4849.6045,N,00906.1366,E,27.00,081.12,110317,,,A*FF
$GPRMC,140751.458,A,4849.6045,N,00906.1366,E,27.00,081.12,110317,,,A*FF
$GPRMC,140751.558,A,4849.6045,N,00906.1366,E,27.00,081.12,110317,,,A*FF
$GPRMC,140751.658,A,4849.6045,N,00906.1366,E,27.00,081.12,110317,,,A*FF
$GPRMC,140751.758,A,4849.6045,N,00906.1366,E,27.00,081.12,110317,,,A*FF
$GPRMC,140751.858,A,4849.6045,N,00906.1366,E,27.00,081.12,110317,,,A*FF
$GPRMC,140751.958,A,4849.6045,N,00906.1366,E,27.00,081.12,110317,,,A*FF
$GPRMC,140752.058,A,4849.6045,N,00906.1366,E,27.00,081.12,110317,,,A*FF
$GPRMC,140752.158,A,4849.6045,N,00906.1366,E,27.00,081.12,110317,,,A*FF
$GPRMC,140752.258,A,4849.6045,N,00906.1366,E,27.00,081.12,110317,,,A*FF
$GPRMC,140752.358,A,4849.6045,N,00906.1366,E,27.00,081.12,110317,,,A*FF
$GPRMC,140752.458,A,4849.6045,N,00906.1366,E,27.00,081.12,110317,,,A*FF
$GPRMC,140752.558,A,4849.6045,N,00906.1366,E,27.00,081.12,110317,,,A*FF
$GPRMC,140752.658,A,4849.6045,N,00906.1366,E,27.00,081.12,110317,,,A*FF
$GPRMC,140752.758,A,4849.6045,N,00906.1366,E,27.00,081.12,110317,,,A*FF
$GPRMC,140752.858,A,4849.6045,N,00906.1366,E,27.00,081.12,110317,,,A*FF
$GPRMC,140752.958,A,4849.6045,N,00906.1366,E,27.00,081.12,110317,,,A*FF
$GPRMC,140753.058,A,4849.6045,N,00906.1366,E,27.00,081.12,110317,,,A*FF
$GPRMC,140753.158,A,4849.6045,N,00906.1366,E,27.00,081.12,110317,,,A*FF
$GPRMC,140753.258,A,4849.6045,N,00906.1366,E,27.00,081.12,110317,,,A*FF
$GPRMC,140753.358,A,4849.6045,N,00906.1366,E,27.00,081.12,110317,,,A*FF
$GPRMC,140753.458,A,4849.6045,N,00906.1366,E,27.00,081.12,110317,,,A*FF
$GPRMC,140753.558,A,4849.6045,N,00906.1366,E,27.00,081.12,110317,,,A*FF
$GPRMC,140753.658,A,4849.6045,N,00906.1366,E,27.00,081.12,110317,,,A*FF
$GPRMC,140753.758,A,4849.6045,N,00906.1366,E,27.00,081.12,110317,,,A*FF
$GPRMC,140753.858,A,4849.6045,N,00906.1366,E,27.00,081.12,110317,,,A*FF
$GPRMC,140753.958,A,4849.6045,N,00906.1366,E,27.00,081.12,110317,,,A*FF
$GPRMC,140754.058,A,4849.6045,N,00906.1366,E,27.00,081.12,110317,,,A*FF
$GPRMC,140754.158,A,4849.6045,N,00906.1366,E,27.00,081.12,110317,,,A*FF
$GPRMC,140754.258,A,4849.6045,N,00906.1366,E,27.00,081.12,110317,,,A*FF
$GPRMC,140754.358,A,4849.6045,N,00906.1366,E,27.00,081.12,110317,,,A*FF
$GPRMC,140754.458,A,4849.6045,N,00906.1366,E,27.00,081.12,110317,,,A*FF
$GPRMC,140754.558,A,4849.6045,N,00906.1366,E,27.00,081.12,110317,,,A*FF
$GPRMC,140754.658,A,4849.6045,N,00906.1366,E,27.00,081.12,110317,,,A*FF
$GPRMC,140754.758,A,4849.6045,N,00906.1366,E,27.00,081.12,110317,,,A*FF
$GPRMC,140754.858,A,4849.6045,N,00906.1366,E,27.00,081.12,110317,,,A*FF
$GPRMC,140754.958,A,4849.6045,N,00906.1366,E,27.00,081.12,110317,,,A*FF
$GPRMC,140755.058,A,4849.6045,N,00906.1366,E,27.00,081.12,110317,,,A*FF
$GPRMC,140755.158,A,4849.6045,N,00906.1366,E,27.00,081.12,110317,,,A*FF
$GPRMC,140755.258,A,4849.6045,N,00906.1366,E,27.00,081.12,110317,,,A*FF
$GPRMC,140755.358,A,4849.6045,N,00906.1366,E,27.00,081.12,110317,,,A*FF
$GPRMC,140755.458,A,4849.6045,N,00906.1366,E,27.00,081.12,110317,,,A*FF
$GPRMC,140755.558,A,4849.6045,N,00906.1366,E,27.00,081.12,110317,,,A*FF
$GPRMC,140755.658,A,4849.6045,N,00906.1366,E,27.00,081.12,110317,,,A*FF
$GPRMC,140755.759,A,4849.6045,N,00906.1366,E,27.00,081.12,110317,,,A*FF
$GPRMC,140755.859,A,4849.6045,N,00906.1366,E,27.00,081.12,110317,,,A*FF
$GPRMC,140755.959,A,4849.6045,N,00906.1366,E,27.00,081.12,110317,,,A*FF
$GPRMC,140756.059,A,4849.6045,N,00906.1366,E,27.00,081.12,110317,,,A*FF
$GPRMC,140756.159,A,4849.6045,N,00906.1366,E,27.00,081.12,110317,,,A*FF
$GPRMC,140756.259,A,4849.6045,N,00906.1366,E,27.00,081.12,110317,,,A*FF
$GPRMC,140756.359,A,4849.6045,N,00906.1366,E,27.00,081.12,110317,,,A*FF
$GPRMC,140756.459,A,4849.6045,N,00906.1366,E,27.00,081.12,110317,,,A*FF
$GPRMC,140756.559,A,4849.6045,N,00906.1366,E,27.00,081.12,110317,,,A*FF
$GPRMC,140756.659,A,4849.6045,N,00906.1366,E,27.00,081.12,110317,,,A*FF
$GPRMC,140756.759,A,4849.6045,N,00906.1366,E,27.00,081.12,110317,,,A*FF
$GPRMC,140756.859,A,4849.6045,N,00906.1366,E,27.00,081.12,110317,,,A*FF
$GPRMC,140756.959,A,4849.6045,N,00906.1366,E,27.00,081.12,110317,,,A*FF
$GPRMC,140757.059,A,4849.6045,N,00906.1366,E,27.00,081.12,110317,,,A*FF
$GPRMC,140757.159,A,4849.6045,N,00906.1366,E,27.00,081.12,110317,,,A*FF
$GPRMC,140757.259,A,4849.6045,N,00906.1366,E,27.00,081.12,110317,,,A*FF
$GPRMC,140757.359,A,4849.6045,N,00906.1366,E,27.00,081.12,110317,,,A*FF
$GPRMC,140757.459,A,4849.6045,N,00906.1366,E,27.00,081.12,110317,,,A*FF
$GPRMC,140757.559,A,4849.6045,N,00906.1366,E,27.00,081.12,110317,,,A*FF
$GPRMC,140757.659,A,4849.6045,N,00906.1366,E,27.00,081.12,110317,,,A*FF
$GPRMC,140757.759,A,4849.6045,N,00906.1366,E,27.00,081.12,110317,,,A*FF
$GPRMC,140757.859,A,4849.6045,N,00906.1366,E,27.00,081.12,110317,,,A*FF
$GPRMC,140757.959,A,4849.6045,N,00906.1366,E,27.00,081.12,110317,,,A*FF
$GPRMC,140758.059,A,4849.6045,N,00906.1366,E,27.00,081.12,110317,,,A*FF
$GPRMC,140758.159,A,4849.6045,N,00906.1366,E,27.00,081.12,110317,,,A*FF
$GPRMC,140758.259,A,4849.6045,N,00906.1366,E,27.00,081.12,110317,,,A*FF
$GPRMC,140758.359,A,4849.6045,N,00906.1366,E,27.00,081.12,110317,,,A*FF
$GPRMC,140758.459,A,4849.6045,N,00906.1366,E,27.00,081.12,110317,,,A*FF
$GPRMC,140758.559,A,4849.6045,N,00906.1366,E,27.00,081.12,110317,,,A*FF
$GPRMC,140758.659,A,4849.6045,N,00906.1366,E,27.00,081.12,110317,,,A*FF
$GPRMC,140758.759,A,4849.6045,N,00906.1366,E,27.00,081.12,110317,,,A*FF
$GPRMC,140758.859,A,4849.6045,N,00906.1366,E,27.00,081.12,110317,,,A*FF
$GPRMC,140758.959,A,4849.6045,N,00906.1366,E,27.00,081.12,110317,,,A*FF
$GPRMC,140759.059,A,4849.6045,N,00906.1366,E,27.00,081.12,110317,,,A*FF
$GPRMC,140759.159,A,4849.6045,N,00906.1366,E,27.00,081.12,110317,,,A*FF
$GPRMC,140759.259,A,4849.6045,N,00906.1366,E,27.00,081.12,110317,,,A*FF
$GPRMC,140759.359,A,4849.6045,N,00906.1366,E,27.00,081.12,110317,,,A*FF
$GPRMC,140759.459,A,4849.6045,N,00906.1366,E,27.00,081.12,110317,,,A*FF
$GPRMC,140759.559,A,4849.6045,N,00906.1366,E,27.00,081.12,110317,,,A*FF
$GPRMC,140759.659,A,4849.6045,N,00906.1366,E,27.00,081.12,110317,,,A*FF
$GPRMC,140759.759,A,4849.6045,N,00906.1366,E,27.00,081.12,110317,,,A*FF
$GPRMC,140759.859,A,4849.6045,N,00906.1366,E,27.00,081.12,110317,,,A*FF
$GPRMC,140759.959,A,4849.6045,N,00906.1366,E,27.00,081.12,110317,,,A*FF
$GPRMC,140800.059,A,4849.6045,N,00906.1366,E,27.00,081.12,110317,,,A*FF
$GPRMC,140800.159,A,4849.6045,N,00906.1366,E,27.00,081.12,110317,,,A*FF
$GPRMC,140800.259,A,4849.6045,N,00906.1366,E,27.00,081.12,110317,,,A*FF
$GPRMC,140800.359,A,4849.6045,N,00906.1366,E,27.00,081.12,110317,,,A*FF
$GPRMC,140800.459,A,4849.6045,N,00906.1366,E,27.00,081.12,110317,,,A*FF
$GPRMC,140800.559,A,4849.6045,N,00906.1366,E,27.00,081.12,110317,,,A*FF
$GPRMC,140800.659,A,4849.6045,N,00906.1366,E,27.00,081.12,110317,,,A*FF
$GPRMC,140800.759,A,4849.6045,N,00906.1366,E,27.00,081.12,110317,,,A*FF
$GPRMC,140800.859,A,4849.6045,N,00906.1366,E,27.00,081.12,110317,,,A*FF
$GPRMC,140800.959,A,4849.6045,N,00906.1366,E,27.00,081.12,110317,,,A*FF
$GPRMC,140801.059,A,4849.6045,N,00906.1366,E,27.00,081.12,110317,,,A*FF
$GPRMC,140801.159,A,4849.6045,N,00906.1366,E,27.00,081.12,110317,,,A*FF
$GPRMC,140801.259,A,4849.6045,N,00906.1366,E,27.00,081.12,110317,,,A*FF
$GPRMC,140801.359,A,4849.6045,N,00906.1366,E,27.00,081.12,110317,,,A*FF
$GPRMC,140801.459,A,4849.6045,N,00906.1366,E,27.00,081.12,110317,,,A*FF
$GPRMC,140801.559,A,4849.6045,N,00906.1366,E,27.00,081.12,110317,,,A*FF
$GPRMC,140801.659,A,4849.6045,N,00906.1366,E,27.00,081.12,110317,,,A*FF
$GPRMC,140801.759,A,4849.6045,N,00906.1366,E,27.00,081.12,110317,,,A*FF
$GPRMC,140801.859,A,4849.6045,N,00906.1366,E,27.00,081.12,110317,,,A*FF
$GPRMC,140801.959,A,4849.6045,N,00906.1366,E,27.00,081.12,110317,,,A*FF
$GPRMC,140802.059,A,4849.6045,N,00906.1366,E,27.00,081.12,110317,,,A*FF
$GPRMC,140802.159,A,4849.6045,N,00906.1366,E,27.00,081.12,110317,,,A*FF
$GPRMC,140802.259,A,4849.6045,N,00906.1366,E,27.00,081.12,110317,,,A*FF
$GPRMC,140802.359,A,4849.6045,N,00906.1366,E,27.00,081.12,110317,,,A*FF
$GPRMC,140802.459,A,4849.6045,N,00906.1366,E,27.00,081.12,110317,,,A*FF
$GPRMC,140802.559,A,4849.6045,N,00906.1366,E,27.00,081.12,110317,,,A*FF
$GPRMC,140802.659,A,4849.6045,N,00906.1366,E,27.00,081.12,110317,,,A*FF
$GPRMC,140802.759,A,4849.6045,N,00906.1366,E,27.00,081.12,110317,,,A*FF
$GPRMC,140802.859,A,4849.6045,N,00906.1366,E,27.00,081.12,110317,,,A*FF
$GPRMC,140802.959,A,4849.6045,N,00906.1366,E,27.00,081.12,110317,,,A*FF
$GPRMC,140803.059,A,4849.6045,N,00906.1366,E,27.00,081.12,110317,,,A*FF
$GPRMC,140803.159,A,4849.6045,N,00906.1366,E,27.00,081.12,110317,,,A*FF
$GPRMC,140803.259,A,4849.6045,N,00906.1366,E,27.00,081.12,110317,,,A*FF
$GPRMC,140803.359,A,4849.6045,N,00906.1366,E,27.00,081.12,110317,,,A*FF
$GPRMC,140803.459,A,4849.6045,N,00906.1366,E,27.00,081.12,110317,,,A*FF
$GPRMC,140803.559,A,4849.6045,N,00906.1366,E,27.00,081.12,110317,,,A*FF
$GPRMC,140803.659,A,4849.6045,N,00906.1366,E,27.00,081.12,110317,,,A*FF
$GPRMC,140803.759,A,4849.6045,N,00906.1366,E,27.00,081.12,110317,,,A*FF
$GPRMC,140803.859,A,4849.6045,N,00906.1366,E,27.00,081.12,110317,,,A*FF
$GPRMC,140803.959,A,4849.6045,N,00906.1366,E,27.00,081.12,110317,,,A*FF
$GPRMC,140804.059,A,4849.6045,N,00906.1366,E,27.00,081.12,110317,,,A*FF
$GPRMC,140804.159,A,4849.6045,N,00906.1366,E,27.00,081.12,110317,,,A*FF
$GPRMC,140804.259,A,4849.6045,N,00906.1366,E,27.00,081.12,110317,,,A*FF
$GPRMC,140804.359,A,4849.6045,N,00906.1366,E,27.00,081.12,110317,,,A*FF
$GPRMC,140804.459,A,4849.6045,N,00906.1366,E,27.00,081.12,110317,,,A*FF
$GPRMC,140804.559,A,4849.6045,N,00906.1366,E,27.00,081.12,110317,,,A*FF
$GPRMC,140804.659,A,4849.6045,N,00906.1366,E,27.00,081.12,110317,,,A*FF
$GPRMC,140804.759,A,4849.6045,N,00906.1366,E,27.00,081.12,110317,,,A*FF
$GPRMC,140804.859,A,4849.6045,N,00906.1366,E,27.00,081.12,110317,,,A*FF
$GPRMC,140804.959,A,4849.6045,N,00906.1366,E,27.00,081.12,110317,,,A*FF
$GPRMC,140805.059,A,4849.6045,N,00906.1366,E,27.00,081.12,110317,,,A*FF
$GPRMC,140805.159,A,4849.6045,N,00906.1366,E,27.00,081.12,110317,,,A*FF
$GPRMC,140805.260,A,4849.6045,N,00906.1366,E,27.00,081.12,110317,,,A*FF
$GPRMC,140805.360,A,4849.6045,N,00906.1366,E,27.00,081.12,110317,,,A*FF
$GPRMC,140805.460,A,4849.6045,N,00906.1366,E,27.00,081.12,110317,,,A*FF
$GPRMC,140805.560,A,4849.6045,N,00906.1366,E,27.00,081.12,110317,,,A*FF
$GPRMC,140805.660,A,4849.6045,N,00906.1366,E,27.00,081.12,110317,,,A*FF
$GPRMC,140805.760,A,4849.6045,N,00906.1366,E,27.00,081.12,110317,,,A*FF
$GPRMC,140805.860,A,4849.6045,N,00906.1366,E,27.00,081.12,110317,,,A*FF
$GPRMC,140805.960,A,4849.6045,N,00906.1366,E,27.00,081.12,110317,,,A*FF
$GPRMC,140806.060,A,4849.6045,N,00906.1366,E,27.00,081.12,110317,,,A*FF
$GPRMC,140806.160,A,4849.6045,N,00906.1366,E,27.00,081.12,110317,,,A*FF
$GPRMC,140806.260,A,4849.6045,N,00906.1366,E,27.00,081.12,110317,,,A*FF
$GPRMC,140806.360,A,4849.6045,N,00906.1366,E,27.00,081.12,110317,,,A*FF
$GPRMC,140806.460,A,4849.6045,N,00906.1366,E,27.00,081.12,110317,,,A*FF
$GPRMC,140806.560,A,4849.6045,N,00906.1366,E,27.00,081.12,110317,,,A*FF
$GPRMC,140806.660,A,4849.6045,N,00906.1366,E,27.00,081.12,110317,,,A*FF
$GPRMC,140806.760,A,4849.6045,N,00906.1366,E,27.00,081.12,110317,,,A*FF
$GPRMC,140806.860,A,4849.6045,N,00906.1366,E,27.00,081.12,110317,,,A*FF
$GPRMC,140806.960,A,4849.6045,N,00906.1366,E,27.00,081.12,110317,,,A*FF
$GPRMC,140807.060,A,4849.6045,N,00906.1366,E,27.00,081.12,110317,,,A*FF
$GPRMC,140807.160,A,4849.6045,N,00906.1366,E,27.00,081.12,110317,,,A*FF
$GPRMC,140807.260,A,4849.6045,N,00906.1366,E,27.00,081.12,110317,,,A*FF
$GPRMC,140807.360,A,4849.6045,N,00906.1366,E,27.00,081.12,110317,,,A*FF
$GPRMC,140807.460,A,4849.6045,N,00906.1366,E,27.00,081.12,110317,,,A*FF
$GPRMC,140807.560,A,4849.6045,N,00906.1366,E,27.00,081.12,110317,,,A*FF
$GPRMC,140807.660,A,4849.6045,N,00906.1366,E,27.00,081.12,110317,,,A*FF
$GPRMC,140807.760,A,4849.6045,N,00906.1366,E,27.00,081.12,110317,,,A*FF
$GPRMC,140807.860,A,4849.6045,N,00906.1366,E,27.00,081.12,110317,,,A*FF
$GPRMC,140807.960,A,4849.6045,N,00906.1366,E,27.00,081.12,110317,,,A*FF
$GPRMC,140808.060,A,4849.6045,N,00906.1366,E,27.00,081.12,110317,,,A*FF
$GPRMC,140808.160,A,4849.6045,N,00906.1366,E,27.00,081.12,110317,,,A*FF
$GPRMC,140808.260,A,4849.6045,N,00906.1366,E,27.00,081.12,110317,,,A*FF
$GPRMC,140808.360,A,4849.6045,N,00906.1366,E,27.00,081.12,110317,,,A*FF
$GPRMC,140808.460,A,4849.6045,N,00906.1366,E,27.00,081.12,110317,,,A*FF
$GPRMC,140808.560,A,4849.6045,N,00906.1366,E,27.00,081.12,110317,,,A*FF
$GPRMC,140808.660,A,4849.6045,N,00906.1366,E,27.00,081.12,110317,,,A*FF
$GPRMC,140808.760,A,4849.6045,N,00906.1366,E,27.00,081.12,110317,,,A*FF
$GPRMC,140808.860,A,4849.6045,N,00906.1366,E,27.00,081.12,110317,,,A*FF
$GPRMC,140808.960,A,4849.6045,N,00906.1366,E,27.00,081.12,110317,,,A*FF
$GPRMC,140809.060,A,4849.6045,N,00906.1366,E,27.00,081.12,110317,,,A*FF
$GPRMC,140809.160,A,4849.6045,N,00906.1366,E,27.00,081.12,110317,,,A*FF
$GPRMC,140809.260,A,4849.6045,N,00906.1366,E,27.00,081.12,110317,,,A*FF
$GPRMC,140809.360,A,4849.6045,N,00906.1366,E,27.00,081.12,110317,,,A*FF
$GPRMC,140809.460,A,4849.6045,N,00906.1366,E,27.00,081.12,110317,,,A*FF
$GPRMC,140809.560,A,4849.6045,N,00906.1366,E,27.00,081.12,110317,,,A*FF
$GPRMC,140809.660,A,4849.6045,N,00906.1366,E,27.00,081.12,110317,,,A*FF
$GPRMC,140809.760,A,4849.6045,N,00906.1366,E,27.00,081.12,110317,,,A*FF
$GPRMC,140809.860,A,4849.6045,N,00906.1366,E,27.00,081.12,110317,,,A*FF
$GPRMC,140809.960,A,4849.6045,N,00906.1366,E,27.00,081.12,110317,,,A*FF
$GPRMC,140810.060,A,4849.6045,N,00906.1366,E,27.00,081.12,110317,,,A*FF
$GPRMC,140810.160,A,4849.6045,N,00906.1366,E,27.00,081.12,110317,,,A*FF
$GPRMC,140810.260,A,4849.6045,N,00906.1366,E,27.00,081.12,110317,,,A*FF
$GPRMC,140810.360,A,4849.6045,N,00906.1366,E,27.00,081.12,110317,,,A*FF
$GPRMC,140810.460,A,4849.6045,N,00906.1366,E,27.00,081.12,110317,,,A*FF
$GPRMC,140810.560,A,4849.6045,N,00906.1366,E,27.00,081.12,110317,,,A*FF
$GPRMC,140810.660,A,4849.6045,N,00906.1366,E,27.00,081.12,110317,,,A*FF
$GPRMC,140810.760,A,4849.6045,N,00906.1366,E,27.00,081.12,110317,,,A*FF
$GPRMC,140810.860,A,4849.6045,N,00906.1366,E,27.00,081.12,110317,,,A*FF
$GPRMC,140810.960,A,4849.6045,N,00906.1366,E,27.00,081.12,110317,,,A*FF
$GPRMC,140811.060,A,4849.6045,N,00906.1366,E,27.00,081.12,110317,,,A*FF
$GPRMC,140811.160,A,4849.6045,N,00906.1366,E,27.00,081.12,110317,,,A*FF
$GPRMC,140811.260,A,4849.6045,N,00906.1366,E,27.00,081.12,110317,,,A*FF
$GPRMC,140811.360,A,4849.6045,N,00906.1366,E,27.00,081.12,110317,,,A*FF
$GPRMC,140811.460,A,4849.6045,N,00906.1366,E,27.00,081.12,110317,,,A*FF
$GPRMC,140811.560,A,4849.6045,N,00906.1366,E,27.00,081.12,110317,,,A*FF
$GPRMC,140811.660,A,4849.6045,N,00906.1366,E,27.00,081.12,110317,,,A*FF
$GPRMC,140811.760,A,4849.6045,N,00906.1366,E,27.00,081.12,110317,,,A*FF
$GPRMC,140811.860,A,4849.6045,N,00906.1366,E,27.00,081.12,110317,,,A*FF
$GPRMC,140811.960,A,4849.6045,N,00906.1366,E,27.00,081.12,110317,,,A*FF
$GPRMC,140812.060,A,4849.6045,N,00906.1366,E,27.00,081.12,110317,,,A*FF
$GPRMC,140812.160,A,4849.6045,N,00906.1366,E,27.00,081.12,110317,,,A*FF
$GPRMC,140812.260,A,4849.6045,N,00906.1366,E,27.00,081.12,110317,,,A*FF
$GPRMC,140812.360,A,4849.6045,N,00906.1366,E,27.00,081.12,110317,,,A*FF
$GPRMC,140812.460,A,4849.6045,N,00906.1366,E,27.00,081.12,110317,,,A*FF
$GPRMC,140812.560,A,4849.6045,N,00906.1366,E,27.00,081.12,110317,,,A*FF
$GPRMC,140812.660,A,4849.6045,N,00906.1366,E,27.00,081.12,110317,,,A*FF
$GPRMC,140812.760,A,4849.6045,N,00906.1366,E,27.00,081.12,110317,,,A*FF
$GPRMC,140812.860,A,4849.6045,N,00906.1366,E,27.00,081.12,110317,,,A*FF
$GPRMC,140812.960,A,4849.6045,N,00906.1366,E,27.00,081.12,110317,,,A*FF
$GPRMC,140813.060,A,4849.6045,N,00906.1366,E,27.00,081.12,110317,,,A*FF
$GPRMC,140813.160,A,4849.6045,N,00906.1366,E,27.00,081.12,110317,,,A*FF
$GPRMC,140813.260,A,4849.6045,N,00906.1366,E,27.00,081.12,110317,,,A*FF
$GPRMC,140813.360,A,4849.6045,N,00906.1366,E,27.00,081.12,110317,,,A*FF
$GPRMC,140813.460,A,4849.6045,N,00906.1366,E,27.00,081.12,110317,,,A*FF
$GPRMC,140813.560,A,4849.6045,N,00906.1366,E,27.00,081.12,110317,,,A*FF
$GPRMC,140813.660,A,4849.6045,N,00906.1366,E,27.00,081.12,110317,,,A*FF
$GPRMC,140813.760,A,4849.6045,N,00906.1366,E,27.00,081.12,110317,,,A*FF
$GPRMC,140813.860,A,4849.6045,N,00906.1366,E,27.00,081.12,110317,,,A*FF
$GPRMC,140813.960,A,4849.6045,N,00906.1366,E,27.00,081.12,110317,,,A*FF
$GPRMC,140814.060,A,4849.6045,N,00906.1366,E,27.00,081.12,110317,,,A*FF
$GPRMC,140814.160,A,4849.6045,N,00906.1366,E,27.00,081.12,110317,,,A*FF
$GPRMC,140814.260,A,4849.6045,N,00906.1366,E,27.00,081.12,110317,,,A*FF
$GPRMC,140814.360,A,4849.6045,N,00906.1366,E,27.00,081.12,110317,,,A*FF
$GPRMC,140814.460,A,4849.6045,N,00906.1366,E,27.00,081.12,110317,,,A*FF
$GPRMC,140814.560,A,4849.6045,N,00906.1366,E,27.00,081.12,110317,,,A*FF
$GPRMC,140814.660,A,4849.6045,N,00906.1366,E,27.00,081.12,110317,,,A*FF
$GPRMC,140814.761,A,4849.6045,N,00906.1366,E,27.00,081.12,110317,,,A*FF
$GPRMC,140814.861,A,4849.6045,N,00906.1366,E,27.00,081.12,110317,,,A*FF
$GPRMC,140814.961,A,4849.6045,N,00906.1366,E,27.00,081.12,110317,,,A*FF
$GPRMC,140815.061,A,4849.6045,N,00906.1366,E,27.00,081.12,110317,,,A*FF
$GPRMC,140815.161,A,4849.6045,N,00906.1366,E,27.00,081.12,110317,,,A*FF
$GPRMC,140815.261,A,4849.6045,N,00906.1366,E,27.00,081.12,110317,,,A*FF
$GPRMC,140815.361,A,4849.6045,N,00906.1366,E,27.00,081.12,110317,,,A*FF
$GPRMC,140815.461,A,4849.6045,N,00906.1366,E,27.00,081.12,110317,,,A*FF
$GPRMC,140815.561,A,4849.6045,N,00906.1366,E,27.00,081.12,110317,,,A*FF
$GPRMC,140815.661,A,4849.6045,N,00906.1366,E,27.00,081.12,110317,,,A*FF
$GPRMC,140815.761,A,4849.6045,N,00906.1366,E,27.00,081.12,110317,,,A*FF
$GPRMC,140815.861,A,4849.6045,N,00906.1366,E,27.00,081.12,110317,,,A*FF
$GPRMC,140815.961,A,4849.6045,N,00906.1366,E,27.00,081.12,110317,,,A*FF
$GPRMC,140816.061,A,4849.6045,N,00906.1366,E,27.00,081.12,110317,,,A*FF
$GPRMC,140816.161,A,4849.6045,N,00906.1366,E,27.00,081.12,110317,,,A*FF
$GPRMC,140816.261,A,4849.6045,N,00906.1366,E,27.00,081.12,110317,,,A*FF
$GPRMC,140816.361,A,4849.6045,N,00906.1366,E,27.00,081.12,110317,,,A*FF
$GPRMC,140816.461,A,4849.6045,N,00906.1366,E,27.00,081.12,110317,,,A*FF
$GPRMC,140816.561,A,4849.6045,N,00906.1366,E,27.00,081.12,110317,,,A*FF
$GPRMC,140816.661,A,4849.6045,N,00906.1366,E,27.00,081.12,110317,,,A*FF
$GPRMC,140816.761,A,4849.6045,N,00906.1366,E,27.00,081.12,110317,,,A*FF
$GPRMC,140816.861,A,4849.6045,N,00906.1366,E,27.00,081.12,110317,,,A*FF
$GPRMC,140816.961,A,4849.6045,N,00906.1366,E,27.00,081.12,110317,,,A*FF
$GPRMC,140817.061,A,4849.6045,N,00906.1366,E,27.00,081.12,110317,,,A*FF
$GPRMC,140817.161,A,4849.6045,N,00906.1366,E,27.00,081.12,110317,,,A*FF
$GPRMC,140817.261,A,4849.6045,N,00906.1366,E,27.00,081.12,110317,,,A*FF
$GPRMC,140817.361,A,4849.6045,N,00906.1366,E,27.00,081.12,110317,,,A*FF
$GPRMC,140817.461,A,4849.6045,N,00906.1366,E,27.00,081.12,110317,,,A*FF
$GPRMC,140817.561,A,4849.6045,N,00906.1366,E,27.00,081.12,110317,,,A*FF
$GPRMC,140817.661,A,4849.6045,N,00906.1366,E,27.00,081.12,110317,,,A*FF
$GPRMC,140817.761,A,4849.6045,N,00906.1366,E,27.00,081.12,110317,,,A*FF
$GPRMC,140817.861,A,4849.6045,N,00906.1366,E,27.00,081.12,110317,,,A*FF
$GPRMC,140817.961,A,4849.6045,N,00906.1366,E,27.00,081.12,110317,,,A*FF
$GPRMC,140818.061,A,4849.6045,N,00906.1366,E,27.00,081.12,110317,,,A*FF
$GPRMC,140818.161,A,4849.6045,N,00906.1366,E,27.00,081.12,110317,,,A*FF
$GPRMC,140818.261,A,4849.6045,N,00906.1366,E,27.00,081.12,110317,,,A*FF
$GPRMC,140818.361,A,4849.6045,N,00906.1366,E,27.00,081.12,110317,,,A*FF
$GPRMC,140818.461,A,4849.6045,N,00906.1366,E,27.00,081.12,110317,,,A*FF
$GPRMC,140818.561,A,4849.6045,N,00906.1366,E,27.00,081.12,110317,,,A*FF
$GPRMC,140818.661,A,4849.6045,N,00906.1366,E,27.00,081.12,110317,,,A*FF
$GPRMC,140818.761,A,4849.6045,N,00906.1366,E,27.00,081.12,110317,,,A*FF
$GPRMC,140818.861,A,4849.6045,N,00906.1366,E,27.00,081.12,110317,,,A*FF
$GPRMC,140818.961,A,4849.6045,N,00906.1366,E,27.00,081.12,110317,,,A*FF
$GPRMC,140819.061,A,4849.6045,N,00906.1366,E,27.00,081.12,110317,,,A*FF
$GPRMC,140819.161,A,4849.6045,N,00906.1366,E,27.00,081.12,110317,,,A*FF
$GPRMC,140819.261,A,4849.6045,N,00906.1366,E,27.00,081.12,110317,,,A*FF
$GPRMC,140819.361,A,4849.6045,N,00906.1366,E,27.00,081.12,110317,,,A*FF
$GPRMC,140819.461,A,4849.6045,N,00906.1366,E,27.00,081.12,110317,,,A*FF
$GPRMC,140819.561,A,4849.6045,N,00906.1366,E,27.00,081.12,110317,,,A*FF
$GPRMC,140819.661,A,4849.6045,N,00906.1366,E,27.00,081.12,110317,,,A*FF
$GPRMC,140819.761,A,4849.6045,N,00906.1366,E,27.00,081.12,110317,,,A*FF
$GPRMC,140819.861,A,4849.6045,N,00906.1366,E,27.00,081.12,110317,,,A*FF
$GPRMC,140819.961,A,4849.6045,N,00906.1366,E,27.00,081.12,110317,,,A*FF
$GPRMC,140820.061,A,4849.6045,N,00906.1366,E,27.00,081.12,110317,,,A*FF
$GPRMC,140820.161,A,4849.6045,N,00906.1366,E,27.00,081.12,110317,,,A*FF
$GPRMC,140820.261,A,4849.6045,N,00906.1366,E,27.00,081.12,110317,,,A*FF
$GPRMC,140820.361,A,4849.6045,N,00906.1366,E,27.00,081.12,110317,,,A*FF
$GPRMC,140820.461,A,4849.6045,N,00906.1366,E,27.00,081.12,110317,,,A*FF
$GPRMC,140820.561,A,4849.6045,N,00906.1366,E,27.00,081.12,110317,,,A*FF
$GPRMC,140820.661,A,4849.6045,N,00906.1366,E,27.00,081.12,110317,,,A*FF
$GPRMC,140820.761,A,4849.6045,N,00906.1366,E,27.00,081.12,110317,,,A*FF
$GPRMC,140820.861,A,4849.6045,N,00906.1366,E,27.00,081.12,110317,,,A*FF
$GPRMC,140820.961,A,4849.6045,N,00906.1366,E,27.00,081.12,110317,,,A*FF
$GPRMC,140821.061,A,4849.6045,N,00906.1366,E,27.00,081.12,110317,,,A*FF
$GPRMC,140821.161,A,4849.6045,N,00906.1366,E,27.00,081.12,110317,,,A*FF
$GPRMC,140821.261,A,4849.6045,N,00906.1366,E,27.00,081.12,110317,,,A*FF
$GPRMC,140821.361,A,4849.6045,N,00906.1366,E,27.00,081.12,110317,,,A*FF
$GPRMC,140821.461,A,4849.6045,N,00906.1366,E,27.00,081.12,110317,,,A*FF
$GPRMC,140821.561,A,4849.6045,N,00906.1366,E,27.00,081.12,110317,,,A*FF
$GPRMC,140821.661,A,4849.6045,N,00906.1366,E,27.00,081.12,110317,,,A*FF
$GPRMC,140821.761,A,4849.6045,N,00906.1366,E,27.00,081.12,110317,,,A*FF
$GPRMC,140821.861,A,4849.6045,N,00906.1366,E,27.00,081.12,110317,,,A*FF
$GPRMC,140821.961,A,4849.6045,N,00906.1366,E,27.00,081.12,110317,,,A*FF
$GPRMC,140822.061,A,4849.6045,N,00906.1366,E,27.00,081.12,110317,,,A*FF
$GPRMC,140822.161,A,4849.6045,N,00906.1366,E,27.00,081.12,110317,,,A*FF
$GPRMC,140822.261,A,4849.6045,N,00906.1366,E,27.00,081.12,110317,,,A*FF
