$GPRMC,140659.078,A,4849.3146,N,00905.7934,E,32.40,339.32,110317,,,A*FF
$GPRMC,140659.179,A,4849.3154,N,00905.7929,E,32.15,339.32,110317,,,A*FF
$GPRMC,140659.280,A,4849.3163,N,00905.7924,E,31.90,339.32,110317,,,A*FF
$GPRMC,140659.381,A,4849.3171,N,00905.7919,E,31.65,339.32,110317,,,A*FF
$GPRMC,140659.482,A,4849.3179,N,00905.7915,E,31.40,339.32,110317,,,A*FF
$GPRMC,140659.583,A,4849.3187,N,00905.7910,E,31.14,339.32,110317,,,A*FF
$GPRMC,140659.684,A,4849.3195,N,00905.7906,E,30.90,339.32,110317,,,A*FF
$GPRMC,140659.785,A,4849.3203,N,00905.7901,E,30.64,339.32,110317,,,A*FF
$GPRMC,140659.886,A,4849.3211,N,00905.7896,E,30.39,339.32,110317,,,A*FF
$GPRMC,140659.987,A,4849.3219,N,00905.7892,E,30.15,339.32,110317,,,A*FF
$GPRMC,140700.088,A,4849.3227,N,00905.7887,E,29.89,339.32,110317,,,A*FF
$GPRMC,140700.189,A,4849.3235,N,00905.7883,E,29.64,339.32,110317,,,A*FF
$GPRMC,140700.290,A,4849.3242,N,00905.7879,E,29.40,339.32,110317,,,A*FF
$GPRMC,140700.391,A,4849.3250,N,00905.7874,E,29.14,339.32,110317,,,A*FF
$GPRMC,140700.492,A,4849.3257,N,00905.7870,E,28.89,339.32,110317,,,A*FF
$GPRMC,140700.593,A,4849.3265,N,00905.7866,E,28.64,339.32,110317,,,A*FF
$GPRMC,140700.694,A,4849.3272,N,00905.7861,E,28.39,339.32,110317,,,A*FF
$GPRMC,140700.795,A,4849.3280,N,00905.7857,E,28.14,339.32,110317,,,A*FF
$GPRMC,140700.896,A,4849.3287,N,00905.7853,E,27.89,339.32,110317,,,A*FF
$GPRMC,140700.997,A,4849.3294,N,00905.7849,E,27.64,339.32,110317,,,A*FF
$GPRMC,140701.097,A,4849.3301,N,00905.7845,E,27.39,339.32,110317,,,A*FF
$GPRMC,140701.198,A,4849.3309,N,00905.7841,E,27.14,343.71,110317,,,A*FF
$GPRMC,140701.298,A,4849.3316,N,00905.7838,E,26.89,343.71,110317,,,A*FF
$GPRMC,140701.398,A,4849.3323,N,00905.7834,E,26.64,343.71,110317,,,A*FF
$GPRMC,140701.499,A,4849.3330,N,00905.7831,E,26.39,343.71,110317,,,A*FF
$GPRMC,140701.599,A,4849.3337,N,00905.7828,E,26.14,343.71,110317,,,A*FF
$GPRMC,140701.699,A,4849.3344,N,00905.7825,E,25.89,343.71,110317,,,A*FF
$GPRMC,140701.800,A,4849.3351,N,00905.7822,E,25.64,343.71,110317,,,A*FF
$GPRMC,140701.900,A,4849.3358,N,00905.7819,E,25.39,343.71,110317,,,A*FF
$GPRMC,140702.001,A,4849.3364,N,00905.7816,E,25.13,343.71,110317,,,A*FF
$GPRMC,140702.102,A,4849.3371,N,00905.7813,E,24.89,343.71,110317,,,A*FF
$GPRMC,140702.203,A,4849.3378,N,00905.7810,E,24.64,343.71,110317,,,A*FF
$GPRMC,140702.304,A,4849.3384,N,00905.7807,E,24.38,343.71,110317,,,A*FF
$GPRMC,140702.405,A,4849.3391,N,00905.7804,E,24.14,343.71,110317,,,A*FF
$GPRMC,140702.506,A,4849.3397,N,00905.7802,E,23.88,343.71,110317,,,A*FF
$GPRMC,140702.607,A,4849.3403,N,00905.7799,E,23.63,343.71,110317,,,A*FF
$GPRMC,140702.708,A,4849.3410,N,00905.7796,E,23.39,343.71,110317,,,A*FF
$GPRMC,140702.809,A,4849.3416,N,00905.7793,E,23.13,343.71,110317,,,A*FF
$GPRMC,140702.910,A,4849.3422,N,00905.7791,E,22.88,343.71,110317,,,A*FF
$GPRMC,140703.011,A,4849.3428,N,00905.7788,E,22.63,343.71,110317,,,A*FF
$GPRMC,140703.112,A,4849.3434,N,00905.7785,E,22.38,343.71,110317,,,A*FF
$GPRMC,140703.212,A,4849.3440,N,00905.7783,E,22.13,343.71,110317,,,A*FF
$GPRMC,140703.313,A,4849.3446,N,00905.7780,E,21.88,343.71,110317,,,A*FF
$GPRMC,140703.413,A,4849.3452,N,00905.7777,E,21.63,343.71,110317,,,A*FF
$GPRMC,140703.513,A,4849.3457,N,00905.7775,E,21.38,343.71,110317,,,A*FF
$GPRMC,140703.614,A,4849.3463,N,00905.7772,E,21.13,343.71,110317,,,A*FF
$GPRMC,140703.714,A,4849.3469,N,00905.7770,E,20.88,343.71,110317,,,A*FF
$GPRMC,140703.815,A,4849.3474,N,00905.7767,E,20.63,344.45,110317,,,A*FF
$GPRMC,140703.915,A,4849.3480,N,00905.7765,E,20.38,344.45,110317,,,A*FF
$GPRMC,140704.016,A,4849.3485,N,00905.7763,E,20.13,344.45,110317,,,A*FF
$GPRMC,140704.116,A,4849.3491,N,00905.7761,E,19.88,344.45,110317,,,A*FF
$GPRMC,140704.216,A,4849.3496,N,00905.7758,E,19.63,344.45,110317,,,A*FF
$GPRMC,140704.317,A,4849.3501,N,00905.7756,E,19.38,344.45,110317,,,A*FF
$GPRMC,140704.417,A,4849.3506,N,00905.7754,E,19.13,344.45,110317,,,A*FF
$GPRMC,140704.518,A,4849.3511,N,00905.7752,E,18.88,344.45,110317,,,A*FF
$GPRMC,140704.618,A,4849.3516,N,00905.7750,E,18.63,344.45,110317,,,A*FF
$GPRMC,140704.719,A,4849.3521,N,00905.7748,E,18.37,344.45,110317,,,A*FF
$GPRMC,140704.819,A,4849.3526,N,00905.7746,E,18.13,344.45,110317,,,A*FF
$GPRMC,140704.919,A,4849.3531,N,00905.7743,E,17.88,344.45,110317,,,A*FF
$GPRMC,140705.020,A,4849.3536,N,00905.7741,E,17.62,344.45,110317,,,A*FF
$GPRMC,140705.120,A,4849.3540,N,00905.7740,E,17.38,344.45,110317,,,A*FF
$GPRMC,140705.221,A,4849.3545,N,00905.7738,E,17.13,344.45,110317,,,A*FF
$GPRMC,140705.321,A,4849.3550,N,00905.7736,E,16.87,344.45,110317,,,A*FF
$GPRMC,140705.422,A,4849.3554,N,00905.7734,E,16.63,344.45,110317,,,A*FF
$GPRMC,140705.522,A,4849.3559,N,00905.7732,E,16.37,344.45,110317,,,A*FF
$GPRMC,140705.622,A,4849.3563,N,00905.7730,E,16.20,344.45,110317,,,A*FF
$GPRMC,140705.723,A,4849.3567,N,00905.7728,E,16.20,344.45,110317,,,A*FF
$GPRMC,140705.823,A,4849.3572,N,00905.7726,E,16.20,344.45,110317,,,A*FF
$GPRMC,140705.924,A,4849.3576,N,00905.7725,E,16.20,344.45,110317,,,A*FF
$GPRMC,140706.024,A,4849.3580,N,00905.7723,E,16.20,344.45,110317,,,A*FF
$GPRMC,140706.125,A,4849.3585,N,00905.7721,E,16.20,344.45,110317,,,A*FF
$GPRMC,140706.225,A,4849.3589,N,00905.7719,E,16.20,344.45,110317,,,A*FF
$GPRMC,140706.326,A,4849.3593,N,00905.7717,E,16.20,344.13,110317,,,A*FF
$GPRMC,140706.426,A,4849.3598,N,00905.7715,E,16.20,344.13,110317,,,A*FF
$GPRMC,140706.526,A,4849.3602,N,00905.7713,E,16.20,344.13,110317,,,A*FF
$GPRMC,140706.627,A,4849.3606,N,00905.7712,E,16.20,344.13,110317,,,A*FF
$GPRMC,140706.727,A,4849.3611,N,00905.7710,E,16.20,344.13,110317,,,A*FF
$GPRMC,140706.828,A,4849.3615,N,00905.7708,E,16.20,344.13,110317,,,A*FF
$GPRMC,140706.928,A,4849.3619,N,00905.7706,E,16.20,344.13,110317,,,A*FF
$GPRMC,140707.029,A,4849.3624,N,00905.7704,E,16.20,344.13,110317,,,A*FF
$GPRMC,140707.129,A,4849.3628,N,00905.7702,E,16.20,344.13,110317,,,A*FF
$GPRMC,140707.229,A,4849.3632,N,00905.7700,E,16.20,344.13,110317,,,A*FF
$GPRMC,140707.330,A,4849.3637,N,00905.7698,E,16.20,344.13,110317,,,A*FF
$GPRMC,140707.430,A,4849.3641,N,00905.7697,E,16.20,344.13,110317,,,A*FF
$GPRMC,140707.531,A,4849.3645,N,00905.7695,E,16.20,344.13,110317,,,A*FF
$GPRMC,140707.631,A,4849.3650,N,00905.7693,E,16.20,344.13,110317,,,A*FF
$GPRMC,140707.732,A,4849.3654,N,00905.7691,E,16.20,344.13,110317,,,A*FF
$GPRMC,140707.832,A,4849.3658,N,00905.7689,E,16.20,344.13,110317,,,A*FF
$GPRMC,140707.932,A,4849.3662,N,00905.7687,E,16.20,344.13,110317,,,A*FF
$GPRMC,140708.033,A,4849.3667,N,00905.7685,E,16.20,344.13,110317,,,A*FF
$GPRMC,140708.133,A,4849.3671,N,00905.7684,E,16.20,344.13,110317,,,A*FF
$GPRMC,140708.234,A,4849.3675,N,00905.7682,E,16.20,344.13,110317,,,A*FF
$GPRMC,140708.334,A,4849.3680,N,00905.7680,E,16.20,344.13,110317,,,A*FF
$GPRMC,140708.435,A,4849.3684,N,00905.7678,E,16.20,344.13,110317,,,A*FF
$GPRMC,140708.535,A,4849.3688,N,00905.7676,E,16.20,344.13,110317,,,A*FF
$GPRMC,140708.636,A,4849.3693,N,00905.7673,E,16.20,318.58,110317,,,A*FF
$GPRMC,140708.736,A,4849.3696,N,00905.7669,E,16.20,318.58,110317,,,A*FF
$GPRMC,140708.837,A,4849.3699,N,00905.7664,E,16.20,318.58,110317,,,A*FF
$GPRMC,140708.937,A,4849.3703,N,00905.7660,E,16.20,318.58,110317,,,A*FF
$GPRMC,140709.038,A,4849.3706,N,00905.7655,E,16.20,318.58,110317,,,A*FF
$GPRMC,140709.138,A,4849.3709,N,00905.7651,E,16.20,318.58,110317,,,A*FF
$GPRMC,140709.238,A,4849.3711,N,00905.7644,E,16.20,282.26,110317,,,A*FF
$GPRMC,140709.339,A,4849.3712,N,00905.7637,E,16.20,282.26,110317,,,A*FF
$GPRMC,140709.439,A,4849.3713,N,00905.7631,E,16.20,282.26,110317,,,A*FF
$GPRMC,140709.540,A,4849.3714,N,00905.7624,E,16.20,282.26,110317,,,A*FF
$GPRMC,140709.640,A,4849.3714,N,00905.7617,E,16.20,282.26,110317,,,A*FF
$GPRMC,140709.741,A,4849.3715,N,00905.7610,E,16.20,265.43,110317,,,A*FF
$GPRMC,140709.841,A,4849.3714,N,00905.7603,E,16.20,265.43,110317,,,A*FF
$GPRMC,140709.941,A,4849.3714,N,00905.7596,E,16.20,265.43,110317,,,A*FF
$GPRMC,140710.042,A,4849.3714,N,00905.7589,E,16.20,265.43,110317,,,A*FF
$GPRMC,140710.142,A,4849.3713,N,00905.7583,E,16.20,265.43,110317,,,A*FF
$GPRMC,140710.242,A,4849.3713,N,00905.7576,E,16.20,265.43,110317,,,A*FF
$GPRMC,140710.343,A,4849.3711,N,00905.7569,E,16.20,240.26,110317,,,A*FF
$GPRMC,140710.443,A,4849.3709,N,00905.7563,E,16.20,240.26,110317,,,A*FF
$GPRMC,140710.543,A,4849.3707,N,00905.7557,E,16.20,240.26,110317,,,A*FF
$GPRMC,140710.644,A,4849.3704,N,00905.7551,E,16.20,240.26,110317,,,A*FF
$GPRMC,140710.744,A,4849.3702,N,00905.7545,E,16.20,240.26,110317,,,A*FF
$GPRMC,140710.844,A,4849.3700,N,00905.7538,E,16.20,235.12,110317,,,A*FF
$GPRMC,140710.945,A,4849.3697,N,00905.7533,E,16.20,235.12,110317,,,A*FF
$GPRMC,140711.045,A,4849.3695,N,00905.7527,E,16.20,235.12,110317,,,A*FF
$GPRMC,140711.145,A,4849.3692,N,00905.7522,E,16.20,235.12,110317,,,A*FF
$GPRMC,140711.246,A,4849.3689,N,00905.7516,E,16.20,235.12,110317,,,A*FF
$GPRMC,140711.346,A,4849.3687,N,00905.7510,E,16.20,235.12,110317,,,A*FF
$GPRMC,140711.446,A,4849.3684,N,00905.7505,E,16.20,235.12,110317,,,A*FF
$GPRMC,140711.547,A,4849.3682,N,00905.7499,E,16.20,235.12,110317,,,A*FF
$GPRMC,140711.647,A,4849.3679,N,00905.7494,E,16.20,235.12,110317,,,A*FF
$GPRMC,140711.747,A,4849.3677,N,00905.7488,E,16.20,235.12,110317,,,A*FF
$GPRMC,140711.848,A,4849.3675,N,00905.7481,E,16.20,252.76,110317,,,A*FF
$GPRMC,140711.948,A,4849.3673,N,00905.7474,E,16.20,252.76,110317,,,A*FF
$GPRMC,140712.048,A,4849.3672,N,00905.7468,E,16.20,252.76,110317,,,A*FF
$GPRMC,140712.149,A,4849.3671,N,00905.7461,E,16.20,252.76,110317,,,A*FF
$GPRMC,140712.249,A,4849.3669,N,00905.7455,E,16.20,252.76,110317,,,A*FF
$GPRMC,140712.349,A,4849.3668,N,00905.7448,E,16.20,252.76,110317,,,A*FF
$GPRMC,140712.450,A,4849.3667,N,00905.7442,E,16.20,252.76,110317,,,A*FF
$GPRMC,140712.550,A,4849.3664,N,00905.7436,E,16.20,225.00,110317,,,A*FF
$GPRMC,140712.650,A,4849.3660,N,00905.7431,E,16.20,225.00,110317,,,A*FF
$GPRMC,140712.751,A,4849.3657,N,00905.7426,E,16.20,225.00,110317,,,A*FF
$GPRMC,140712.851,A,4849.3654,N,00905.7421,E,16.20,225.00,110317,,,A*FF
$GPRMC,140712.951,A,4849.3651,N,00905.7416,E,16.20,225.00,110317,,,A*FF
$GPRMC,140713.052,A,4849.3648,N,00905.7411,E,16.20,225.00,110317,,,A*FF
$GPRMC,140713.152,A,4849.3645,N,00905.7407,E,16.20,225.00,110317,,,A*FF
$GPRMC,140713.252,A,4849.3641,N,00905.7402,E,16.20,225.00,110317,,,A*FF
$GPRMC,140713.353,A,4849.3638,N,00905.7397,E,16.20,225.00,110317,,,A*FF
$GPRMC,140713.453,A,4849.3634,N,00905.7393,E,16.20,214.70,110317,,,A*FF
$GPRMC,140713.553,A,4849.3630,N,00905.7389,E,16.20,214.70,110317,,,A*FF
$GPRMC,140713.654,A,4849.3627,N,00905.7385,E,16.20,214.70,110317,,,A*FF
$GPRMC,140713.754,A,4849.3623,N,00905.7381,E,16.20,214.70,110317,,,A*FF
$GPRMC,140713.854,A,4849.3619,N,00905.7377,E,16.20,214.70,110317,,,A*FF
$GPRMC,140713.955,A,4849.3616,N,00905.7373,E,16.20,214.70,110317,,,A*FF
$GPRMC,140714.055,A,4849.3612,N,00905.7369,E,16.20,214.70,110317,,,A*FF
$GPRMC,140714.155,A,4849.3608,N,00905.7365,E,16.20,214.70,110317,,,A*FF
$GPRMC,140714.255,A,4849.3605,N,00905.7361,E,16.20,214.70,110317,,,A*FF
$GPRMC,140714.356,A,4849.3601,N,00905.7358,E,16.20,214.70,110317,,,A*FF
$GPRMC,140714.456,A,4849.3597,N,00905.7354,E,16.20,214.70,110317,,,A*FF
$GPRMC,140714.556,A,4849.3593,N,00905.7350,E,16.20,206.57,110317,,,A*FF
$GPRMC,140714.657,A,4849.3589,N,00905.7347,E,16.20,206.57,110317,,,A*FF
$GPRMC,140714.757,A,4849.3585,N,00905.7344,E,16.20,206.57,110317,,,A*FF
$GPRMC,140714.857,A,4849.3581,N,00905.7341,E,16.20,206.57,110317,,,A*FF
$GPRMC,140714.958,A,4849.3577,N,00905.7338,E,16.20,206.57,110317,,,A*FF
$GPRMC,140715.058,A,4849.3573,N,00905.7335,E,16.20,206.57,110317,,,A*FF
$GPRMC,140715.158,A,4849.3569,N,00905.7332,E,16.20,206.57,110317,,,A*FF
$GPRMC,140715.259,A,4849.3565,N,00905.7329,E,16.20,206.57,110317,,,A*FF
$GPRMC,140715.359,A,4849.3561,N,00905.7326,E,16.20,206.57,110317,,,A*FF
$GPRMC,140715.459,A,4849.3557,N,00905.7323,E,16.20,206.57,110317,,,A*FF
$GPRMC,140715.560,A,4849.3553,N,00905.7320,E,16.20,206.57,110317,,,A*FF
$GPRMC,140715.660,A,4849.3549,N,00905.7317,E,16.20,206.57,110317,,,A*FF
$GPRMC,140715.760,A,4849.3545,N,00905.7314,E,16.20,206.57,110317,,,A*FF
$GPRMC,140715.861,A,4849.3541,N,00905.7311,E,16.20,206.57,110317,,,A*FF
$GPRMC,140715.961,A,4849.3537,N,00905.7307,E,16.20,206.57,110317,,,A*FF
$GPRMC,140716.061,A,4849.3533,N,00905.7304,E,16.20,206.57,110317,,,A*FF
$GPRMC,140716.162,A,4849.3529,N,00905.7301,E,16.20,206.57,110317,,,A*FF
$GPRMC,140716.262,A,4849.3525,N,00905.7298,E,16.20,206.57,110317,,,A*FF
$GPRMC,140716.362,A,4849.3521,N,00905.7295,E,16.20,206.57,110317,,,A*FF
$GPRMC,140716.463,A,4849.3517,N,00905.7292,E,16.20,206.57,110317,,,A*FF
$GPRMC,140716.563,A,4849.3512,N,00905.7289,E,16.20,207.28,110317,,,A*FF
$GPRMC,140716.663,A,4849.3508,N,00905.7286,E,16.20,207.28,110317,,,A*FF
$GPRMC,140716.764,A,4849.3504,N,00905.7283,E,16.20,207.28,110317,,,A*FF
$GPRMC,140716.864,A,4849.3500,N,00905.7279,E,16.20,207.28,110317,,,A*FF
$GPRMC,140716.964,A,4849.3496,N,00905.7276,E,16.20,207.28,110317,,,A*FF
$GPRMC,140717.065,A,4849.3492,N,00905.7273,E,16.20,207.28,110317,,,A*FF
$GPRMC,140717.165,A,4849.3488,N,00905.7270,E,16.20,207.28,110317,,,A*FF
$GPRMC,140717.265,A,4849.3484,N,00905.7267,E,16.20,207.28,110317,,,A*FF
$GPRMC,140717.366,A,4849.3480,N,00905.7264,E,16.20,207.28,110317,,,A*FF
$GPRMC,140717.466,A,4849.3476,N,00905.7261,E,16.20,207.28,110317,,,A*FF
$GPRMC,140717.566,A,4849.3472,N,00905.7258,E,16.20,207.28,110317,,,A*FF
$GPRMC,140717.667,A,4849.3468,N,00905.7254,E,16.20,207.28,110317,,,A*FF
$GPRMC,140717.767,A,4849.3464,N,00905.7251,E,16.20,207.28,110317,,,A*FF
$GPRMC,140717.867,A,4849.3460,N,00905.7248,E,16.20,207.28,110317,,,A*FF
$GPRMC,140717.967,A,4849.3456,N,00905.7245,E,16.20,207.28,110317,,,A*FF
$GPRMC,140718.068,A,4849.3452,N,00905.7242,E,16.20,207.28,110317,,,A*FF
$GPRMC,140718.168,A,4849.3448,N,00905.7239,E,16.20,207.28,110317,,,A*FF
$GPRMC,140718.268,A,4849.3444,N,00905.7236,E,16.20,207.28,110317,,,A*FF
$GPRMC,140718.369,A,4849.3440,N,00905.7233,E,16.20,207.28,110317,,,A*FF
$GPRMC,140718.469,A,4849.3436,N,00905.7229,E,16.20,207.28,110317,,,A*FF
$GPRMC,140718.569,A,4849.3432,N,00905.7226,E,16.20,207.28,110317,,,A*FF
$GPRMC,140718.670,A,4849.3428,N,00905.7223,E,16.20,207.28,110317,,,A*FF
$GPRMC,140718.770,A,4849.3424,N,00905.7220,E,16.20,207.28,110317,,,A*FF
$GPRMC,140718.870,A,4849.3420,N,00905.7217,E,16.20,207.28,110317,,,A*FF
$GPRMC,140718.971,A,4849.3416,N,00905.7214,E,16.20,207.28,110317,,,A*FF
$GPRMC,140719.071,A,4849.3412,N,00905.7210,E,16.20,226.91,110317,,,A*FF
$GPRMC,140719.171,A,4849.3409,N,00905.7205,E,16.20,226.91,110317,,,A*FF
$GPRMC,140719.272,A,4849.3406,N,00905.7200,E,16.20,226.91,110317,,,A*FF
$GPRMC,140719.372,A,4849.3403,N,00905.7195,E,16.20,226.91,110317,,,A*FF
$GPRMC,140719.472,A,4849.3400,N,00905.7190,E,16.20,226.91,110317,,,A*FF
$GPRMC,140719.573,A,4849.3397,N,00905.7185,E,16.20,226.91,110317,,,A*FF
$GPRMC,140719.673,A,4849.3394,N,00905.7180,E,16.20,226.91,110317,,,A*FF
$GPRMC,140719.774,A,4849.3391,N,00905.7175,E,16.20,226.91,110317,,,A*FF
$GPRMC,140719.874,A,4849.3388,N,00905.7170,E,16.20,226.91,110317,,,A*FF
$GPRMC,140719.974,A,4849.3384,N,00905.7165,E,16.20,226.91,110317,,,A*FF
$GPRMC,140720.075,A,4849.3382,N,00905.7159,E,16.20,248.75,110317,,,A*FF
$GPRMC,140720.175,A,4849.3380,N,00905.7152,E,16.20,248.75,110317,,,A*FF
$GPRMC,140720.275,A,4849.3378,N,00905.7146,E,16.20,248.75,110317,,,A*FF
$GPRMC,140720.376,A,4849.3377,N,00905.7140,E,16.20,248.75,110317,,,A*FF
$GPRMC,140720.476,A,4849.3375,N,00905.7133,E,16.20,248.75,110317,,,A*FF
$GPRMC,140720.576,A,4849.3373,N,00905.7127,E,16.20,248.75,110317,,,A*FF
$GPRMC,140720.677,A,4849.3372,N,00905.7121,E,16.20,248.75,110317,,,A*FF
$GPRMC,140720.777,A,4849.3370,N,00905.7114,E,16.20,248.75,110317,,,A*FF
$GPRMC,140720.877,A,4849.3369,N,00905.7108,E,16.20,248.75,110317,,,A*FF
$GPRMC,140720.978,A,4849.3367,N,00905.7101,E,16.20,248.75,110317,,,A*FF
$GPRMC,140721.078,A,4849.3365,N,00905.7095,E,16.20,248.75,110317,,,A*FF
$GPRMC,140721.178,A,4849.3364,N,00905.7089,E,16.20,248.75,110317,,,A*FF
$GPRMC,140721.278,A,4849.3362,N,00905.7082,E,16.20,248.75,110317,,,A*FF
$GPRMC,140721.379,A,4849.3360,N,00905.7074,E,16.20,267.43,110317,,,A*FF
$GPRMC,140721.479,A,4849.3360,N,00905.7067,E,16.20,267.43,110317,,,A*FF
$GPRMC,140721.579,A,4849.3360,N,00905.7061,E,16.20,267.43,110317,,,A*FF
$GPRMC,140721.680,A,4849.3359,N,00905.7054,E,16.20,267.43,110317,,,A*FF
$GPRMC,140721.780,A,4849.3359,N,00905.7047,E,16.20,267.43,110317,,,A*FF
$GPRMC,140721.880,A,4849.3359,N,00905.7040,E,16.20,267.43,110317,,,A*FF
$GPRMC,140721.981,A,4849.3359,N,00905.7033,E,16.20,267.43,110317,,,A*FF
$GPRMC,140722.081,A,4849.3359,N,00905.7026,E,16.20,267.43,110317,,,A*FF
$GPRMC,140722.181,A,4849.3358,N,00905.7020,E,16.20,267.43,110317,,,A*FF
$GPRMC,140722.282,A,4849.3358,N,00905.7013,E,16.20,267.43,110317,,,A*FF
$GPRMC,140722.382,A,4849.3358,N,00905.7006,E,16.20,267.43,110317,,,A*FF
$GPRMC,140722.482,A,4849.3358,N,00905.6999,E,16.20,267.43,110317,,,A*FF
$GPRMC,140722.583,A,4849.3358,N,00905.6992,E,16.20,267.43,110317,,,A*FF
$GPRMC,140722.683,A,4849.3357,N,00905.6985,E,16.20,267.43,110317,,,A*FF
$GPRMC,140722.783,A,4849.3357,N,00905.6979,E,16.20,267.43,110317,,,A*FF
$GPRMC,140722.884,A,4849.3357,N,00905.6972,E,16.20,267.43,110317,,,A*FF
$GPRMC,140722.984,A,4849.3357,N,00905.6965,E,16.20,267.43,110317,,,A*FF
$GPRMC,140723.085,A,4849.3357,N,00905.6958,E,16.20,267.43,110317,,,A*FF
$GPRMC,140723.186,A,4849.3356,N,00905.6951,E,16.20,267.43,110317,,,A*FF
$GPRMC,140723.287,A,4849.3356,N,00905.6945,E,16.20,267.43,110317,,,A*FF
$GPRMC,140723.388,A,4849.3356,N,00905.6938,E,16.20,267.43,110317,,,A*FF
$GPRMC,140723.489,A,4849.3356,N,00905.6928,E,16.20,272.33,110317,,,A*FF
$GPRMC,140723.590,A,4849.3356,N,00905.6921,E,16.20,272.33,110317,,,A*FF
$GPRMC,140723.691,A,4849.3356,N,00905.6914,E,16.20,272.33,110317,,,A*FF
$GPRMC,140723.792,A,4849.3356,N,00905.6907,E,16.20,272.33,110317,,,A*FF
$GPRMC,140723.893,A,4849.3357,N,00905.6900,E,16.20,272.33,110317,,,A*FF
$GPRMC,140723.994,A,4849.3357,N,00905.6893,E,16.20,272.33,110317,,,A*FF
$GPRMC,140724.095,A,4849.3357,N,00905.6887,E,16.20,272.33,110317,,,A*FF
$GPRMC,140724.196,A,4849.3357,N,00905.6880,E,16.20,272.33,110317,,,A*FF
$GPRMC,140724.297,A,4849.3357,N,00905.6873,E,16.20,272.33,110317,,,A*FF
$GPRMC,140724.398,A,4849.3358,N,00905.6866,E,16.20,272.33,110317,,,A*FF
$GPRMC,140724.499,A,4849.3358,N,00905.6859,E,16.20,272.33,110317,,,A*FF
$GPRMC,140724.600,A,4849.3358,N,00905.6853,E,16.20,272.33,110317,,,A*FF
$GPRMC,140724.701,A,4849.3358,N,00905.6846,E,16.20,272.33,110317,,,A*FF
$GPRMC,140724.802,A,4849.3358,N,00905.6839,E,16.20,272.33,110317,,,A*FF
$GPRMC,140724.902,A,4849.3358,N,00905.6832,E,16.20,272.33,110317,,,A*FF
$GPRMC,140725.003,A,4849.3359,N,00905.6825,E,16.20,272.33,110317,,,A*FF
$GPRMC,140725.104,A,4849.3359,N,00905.6818,E,16.20,272.33,110317,,,A*FF
$GPRMC,140725.205,A,4849.3359,N,00905.6812,E,16.20,272.33,110317,,,A*FF
$GPRMC,140725.305,A,4849.3359,N,00905.6805,E,16.20,272.33,110317,,,A*FF
$GPRMC,140725.406,A,4849.3359,N,00905.6798,E,16.20,272.33,110317,,,A*FF
$GPRMC,140725.507,A,4849.3360,N,00905.6791,E,16.20,272.33,110317,,,A*FF
$GPRMC,140725.608,A,4849.3360,N,00905.6784,E,16.20,272.33,110317,,,A*FF
$GPRMC,140725.708,A,4849.3360,N,00905.6777,E,16.20,272.33,110317,,,A*FF
$GPRMC,140725.809,A,4849.3360,N,00905.6771,E,16.20,272.33,110317,,,A*FF
$GPRMC,140725.910,A,4849.3360,N,00905.6764,E,16.20,272.33,110317,,,A*FF
$GPRMC,140726.011,A,4849.3360,N,00905.6757,E,16.20,272.33,110317,,,A*FF
$GPRMC,140726.112,A,4849.3361,N,00905.6750,E,16.20,272.33,110317,,,A*FF
$GPRMC,140726.212,A,4849.3361,N,00905.6743,E,16.20,272.33,110317,,,A*FF
$GPRMC,140726.313,A,4849.3361,N,00905.6732,E,16.20,276.12,110317,,,A*FF
$GPRMC,140726.414,A,4849.3362,N,00905.6725,E,16.20,276.12,110317,,,A*FF
$GPRMC,140726.515,A,4849.3362,N,00905.6718,E,16.20,276.12,110317,,,A*FF
$GPRMC,140726.615,A,4849.3363,N,00905.6712,E,16.20,276.12,110317,,,A*FF
$GPRMC,140726.716,A,4849.3363,N,00905.6705,E,16.20,276.12,110317,,,A*FF
$GPRMC,140726.817,A,4849.3364,N,00905.6698,E,16.20,276.12,110317,,,A*FF
$GPRMC,140726.918,A,4849.3364,N,00905.6691,E,16.20,276.12,110317,,,A*FF
$GPRMC,140727.018,A,4849.3365,N,00905.6684,E,16.20,276.12,110317,,,A*FF
$GPRMC,140727.119,A,4849.3365,N,00905.6678,E,16.20,276.12,110317,,,A*FF
$GPRMC,140727.220,A,4849.3366,N,00905.6671,E,16.20,276.12,110317,,,A*FF
$GPRMC,140727.321,A,4849.3366,N,00905.6664,E,16.20,276.12,110317,,,A*FF
$GPRMC,140727.421,A,4849.3366,N,00905.6657,E,16.20,276.12,110317,,,A*FF
$GPRMC,140727.522,A,4849.3367,N,00905.6650,E,16.20,276.12,110317,,,A*FF
$GPRMC,140727.623,A,4849.3367,N,00905.6644,E,16.20,276.12,110317,,,A*FF
$GPRMC,140727.723,A,4849.3368,N,00905.6637,E,16.20,276.12,110317,,,A*FF
$GPRMC,140727.824,A,4849.3368,N,00905.6630,E,16.20,276.12,110317,,,A*FF
$GPRMC,140727.924,A,4849.3369,N,00905.6623,E,16.20,276.12,110317,,,A*FF
$GPRMC,140728.025,A,4849.3369,N,00905.6616,E,16.20,276.12,110317,,,A*FF
$GPRMC,140728.126,A,4849.3370,N,00905.6610,E,16.20,276.12,110317,,,A*FF
$GPRMC,140728.226,A,4849.3370,N,00905.6603,E,16.20,276.12,110317,,,A*FF
$GPRMC,140728.327,A,4849.3371,N,00905.6596,E,16.20,276.12,110317,,,A*FF
$GPRMC,140728.427,A,4849.3371,N,00905.6589,E,16.20,276.12,110317,,,A*FF
$GPRMC,140728.528,A,4849.3372,N,00905.6582,E,16.20,276.12,110317,,,A*FF
$GPRMC,140728.628,A,4849.3372,N,00905.6576,E,16.20,276.12,110317,,,A*FF
$GPRMC,140728.729,A,4849.3373,N,00905.6569,E,16.20,276.12,110317,,,A*FF
$GPRMC,140728.829,A,4849.3373,N,00905.6562,E,16.20,276.12,110317,,,A*FF
$GPRMC,140728.930,A,4849.3374,N,00905.6555,E,16.20,276.12,110317,,,A*FF
$GPRMC,140729.030,A,4849.3374,N,00905.6549,E,16.20,276.12,110317,,,A*FF
$GPRMC,140729.131,A,4849.3375,N,00905.6542,E,16.20,276.12,110317,,,A*FF
$GPRMC,140729.232,A,4849.3375,N,00905.6535,E,16.20,276.12,110317,,,A*FF
$GPRMC,140729.332,A,4849.3376,N,00905.6528,E,16.20,276.12,110317,,,A*FF
$GPRMC,140729.432,A,4849.3376,N,00905.6521,E,16.20,276.12,110317,,,A*FF
$GPRMC,140729.533,A,4849.3377,N,00905.6515,E,16.20,276.12,110317,,,A*FF
$GPRMC,140729.633,A,4849.3378,N,00905.6503,E,16.20,290.10,110317,,,A*FF
$GPRMC,140729.733,A,4849.3380,N,00905.6496,E,16.20,290.10,110317,,,A*FF
$GPRMC,140729.834,A,4849.3381,N,00905.6490,E,16.20,290.10,110317,,,A*FF
$GPRMC,140729.934,A,4849.3383,N,00905.6484,E,16.20,290.10,110317,,,A*FF
$GPRMC,140730.034,A,4849.3384,N,00905.6477,E,16.20,290.10,110317,,,A*FF
$GPRMC,140730.134,A,4849.3386,N,00905.6471,E,16.20,290.10,110317,,,A*FF
$GPRMC,140730.235,A,4849.3387,N,00905.6464,E,16.20,290.10,110317,,,A*FF
$GPRMC,140730.335,A,4849.3389,N,00905.6458,E,16.20,290.10,110317,,,A*FF
$GPRMC,140730.435,A,4849.3391,N,00905.6452,E,16.20,290.10,110317,,,A*FF
$GPRMC,140730.536,A,4849.3392,N,00905.6445,E,16.20,290.10,110317,,,A*FF
$GPRMC,140730.636,A,4849.3396,N,00905.6440,E,16.20,337.38,110317,,,A*FF
$GPRMC,140730.737,A,4849.3400,N,00905.6437,E,16.20,337.38,110317,,,A*FF
$GPRMC,140730.837,A,4849.3404,N,00905.6435,E,16.20,337.38,110317,,,A*FF
$GPRMC,140730.937,A,4849.3408,N,00905.6432,E,16.20,337.38,110317,,,A*FF
$GPRMC,140731.038,A,4849.3412,N,00905.6430,E,16.20,337.38,110317,,,A*FF
$GPRMC,140731.138,A,4849.3417,N,00905.6427,E,16.20,337.38,110317,,,A*FF
$GPRMC,140731.238,A,4849.3421,N,00905.6424,E,16.20,337.38,110317,,,A*FF
$GPRMC,140731.339,A,4849.3425,N,00905.6422,E,16.20,337.38,110317,,,A*FF
$GPRMC,140731.439,A,4849.3429,N,00905.6419,E,16.20,337.38,110317,,,A*FF
$GPRMC,140731.539,A,4849.3433,N,00905.6416,E,16.20,337.38,110317,,,A*FF
$GPRMC,140731.640,A,4849.3437,N,00905.6414,E,16.20,337.38,110317,,,A*FF
$GPRMC,140731.740,A,4849.3441,N,00905.6411,E,16.20,337.38,110317,,,A*FF
$GPRMC,140731.840,A,4849.3446,N,00905.6409,E,16.20,354.04,110317,,,A*FF
$GPRMC,140731.941,A,4849.3450,N,00905.6409,E,16.20,354.04,110317,,,A*FF
$GPRMC,140732.041,A,4849.3455,N,00905.6408,E,16.20,354.04,110317,,,A*FF
$GPRMC,140732.141,A,4849.3459,N,00905.6407,E,16.20,354.04,110317,,,A*FF
$GPRMC,140732.242,A,4849.3464,N,00905.6407,E,16.20,354.04,110317,,,A*FF
$GPRMC,140732.342,A,4849.3468,N,00905.6406,E,16.20,354.04,110317,,,A*FF
$GPRMC,140732.442,A,4849.3473,N,00905.6405,E,16.20,354.04,110317,,,A*FF
$GPRMC,140732.543,A,4849.3477,N,00905.6404,E,16.20,354.04,110317,,,A*FF
$GPRMC,140732.643,A,4849.3482,N,00905.6404,E,16.20,354.04,110317,,,A*FF
$GPRMC,140732.743,A,4849.3486,N,00905.6403,E,16.20,354.04,110317,,,A*FF
$GPRMC,140732.844,A,4849.3491,N,00905.6402,E,16.20,354.04,110317,,,A*FF
$GPRMC,140732.944,A,4849.3495,N,00905.6402,E,16.20,354.04,110317,,,A*FF
$GPRMC,140733.044,A,4849.3500,N,00905.6401,E,16.20,354.04,110317,,,A*FF
$GPRMC,140733.145,A,4849.3504,N,00905.6400,E,16.20,354.04,110317,,,A*FF
$GPRMC,140733.245,A,4849.3509,N,00905.6399,E,16.20,354.04,110317,,,A*FF
$GPRMC,140733.345,A,4849.3513,N,00905.6399,E,16.20,354.04,110317,,,A*FF
$GPRMC,140733.446,A,4849.3517,N,00905.6398,E,16.20,354.04,110317,,,A*FF
$GPRMC,140733.546,A,4849.3522,N,00905.6397,E,16.20,354.04,110317,,,A*FF
$GPRMC,140733.646,A,4849.3526,N,00905.6397,E,16.20,354.04,110317,,,A*FF
$GPRMC,140733.747,A,4849.3531,N,00905.6396,E,16.20,354.04,110317,,,A*FF
$GPRMC,140733.847,A,4849.3535,N,00905.6395,E,16.20,354.04,110317,,,A*FF
$GPRMC,140733.947,A,4849.3540,N,00905.6395,E,16.20,354.04,110317,,,A*FF
$GPRMC,140734.047,A,4849.3544,N,00905.6394,E,16.20,354.04,110317,,,A*FF
$GPRMC,140734.148,A,4849.3549,N,00905.6393,E,16.20,354.04,110317,,,A*FF
$GPRMC,140734.248,A,4849.3553,N,00905.6392,E,16.20,354.04,110317,,,A*FF
$GPRMC,140734.348,A,4849.3558,N,00905.6392,E,16.20,354.04,110317,,,A*FF
$GPRMC,140734.449,A,4849.3562,N,00905.6391,E,16.20,354.04,110317,,,A*FF
$GPRMC,140734.549,A,4849.3567,N,00905.6390,E,16.20,001.46,110317,,,A*FF
$GPRMC,140734.649,A,4849.3571,N,00905.6391,E,16.20,001.46,110317,,,A*FF
$GPRMC,140734.750,A,4849.3576,N,00905.6391,E,16.20,001.46,110317,,,A*FF
$GPRMC,140734.850,A,4849.3580,N,00905.6391,E,16.20,001.46,110317,,,A*FF
$GPRMC,140734.950,A,4849.3585,N,00905.6391,E,16.20,001.46,110317,,,A*FF
$GPRMC,140735.051,A,4849.3589,N,00905.6391,E,16.20,001.46,110317,,,A*FF
$GPRMC,140735.151,A,4849.3594,N,00905.6392,E,16.20,001.46,110317,,,A*FF
$GPRMC,140735.251,A,4849.3598,N,00905.6392,E,16.20,001.46,110317,,,A*FF
$GPRMC,140735.352,A,4849.3603,N,00905.6392,E,16.20,001.46,110317,,,A*FF
$GPRMC,140735.452,A,4849.3607,N,00905.6392,E,16.20,001.46,110317,,,A*FF
$GPRMC,140735.552,A,4849.3612,N,00905.6392,E,16.36,001.46,110317,,,A*FF
$GPRMC,140735.653,A,4849.3616,N,00905.6392,E,16.60,001.46,110317,,,A*FF
$GPRMC,140735.753,A,4849.3621,N,00905.6393,E,16.83,001.46,110317,,,A*FF
$GPRMC,140735.853,A,4849.3625,N,00905.6393,E,17.06,001.46,110317,,,A*FF
$GPRMC,140735.954,A,4849.3630,N,00905.6393,E,17.29,001.46,110317,,,A*FF
$GPRMC,140736.054,A,4849.3635,N,00905.6393,E,17.53,001.46,110317,,,A*FF
$GPRMC,140736.154,A,4849.3640,N,00905.6393,E,17.76,001.46,110317,,,A*FF
$GPRMC,140736.255,A,4849.3645,N,00905.6394,E,18.00,001.46,110317,,,A*FF
$GPRMC,140736.355,A,4849.3650,N,00905.6394,E,18.23,001.46,110317,,,A*FF
$GPRMC,140736.455,A,4849.3655,N,00905.6394,E,18.47,001.46,110317,,,A*FF
$GPRMC,140736.556,A,4849.3660,N,00905.6394,E,18.70,001.46,110317,,,A*FF
$GPRMC,140736.656,A,4849.3665,N,00905.6394,E,18.93,001.46,110317,,,A*FF
$GPRMC,140736.756,A,4849.3671,N,00905.6394,E,19.17,001.46,110317,,,A*FF
$GPRMC,140736.857,A,4849.3676,N,00905.6395,E,19.40,001.46,110317,,,A*FF
$GPRMC,140736.957,A,4849.3681,N,00905.6395,E,19.63,001.46,110317,,,A*FF
$GPRMC,140737.057,A,4849.3687,N,00905.6395,E,19.87,001.46,110317,,,A*FF
$GPRMC,140737.158,A,4849.3692,N,00905.6396,E,20.10,015.78,110317,,,A*FF
$GPRMC,140737.258,A,4849.3698,N,00905.6398,E,20.33,015.78,110317,,,A*FF
$GPRMC,140737.358,A,4849.3703,N,00905.6401,E,20.57,015.78,110317,,,A*FF
$GPRMC,140737.459,A,4849.3709,N,00905.6403,E,20.80,015.78,110317,,,A*FF
$GPRMC,140737.559,A,4849.3714,N,00905.6405,E,21.04,015.78,110317,,,A*FF
$GPRMC,140737.659,A,4849.3720,N,00905.6408,E,21.27,015.78,110317,,,A*FF
$GPRMC,140737.760,A,4849.3726,N,00905.6410,E,21.51,015.78,110317,,,A*FF
$GPRMC,140737.860,A,4849.3731,N,00905.6413,E,21.74,015.78,110317,,,A*FF
$GPRMC,140737.961,A,4849.3737,N,00905.6415,E,21.97,015.78,110317,,,A*FF
$GPRMC,140738.062,A,4849.3743,N,00905.6418,E,22.21,015.78,110317,,,A*FF
$GPRMC,140738.163,A,4849.3749,N,00905.6420,E,22.44,015.78,110317,,,A*FF
$GPRMC,140738.264,A,4849.3755,N,00905.6423,E,22.67,015.78,110317,,,A*FF
$GPRMC,140738.365,A,4849.3761,N,00905.6426,E,22.90,015.78,110317,,,A*FF
$GPRMC,140738.466,A,4849.3767,N,00905.6428,E,23.14,015.78,110317,,,A*FF
$GPRMC,140738.567,A,4849.3774,N,00905.6431,E,23.37,015.78,110317,,,A*FF
$GPRMC,140738.668,A,4849.3780,N,00905.6434,E,23.61,015.78,110317,,,A*FF
$GPRMC,140738.769,A,4849.3786,N,00905.6436,E,23.84,015.78,110317,,,A*FF
$GPRMC,140738.870,A,4849.3792,N,00905.6442,E,24.08,037.81,110317,,,A*FF
$GPRMC,140738.971,A,4849.3797,N,00905.6448,E,24.31,037.81,110317,,,A*FF
$GPRMC,140739.072,A,4849.3803,N,00905.6454,E,24.54,037.81,110317,,,A*FF
$GPRMC,140739.173,A,4849.3808,N,00905.6461,E,24.78,037.81,110317,,,A*FF
$GPRMC,140739.274,A,4849.3813,N,00905.6467,E,25.01,037.81,110317,,,A*FF
$GPRMC,140739.375,A,4849.3819,N,00905.6473,E,25.24,037.81,110317,,,A*FF
$GPRMC,140739.476,A,4849.3825,N,00905.6480,E,25.48,037.81,110317,,,A*FF
$GPRMC,140739.577,A,4849.3830,N,00905.6487,E,25.71,037.81,110317,,,A*FF
$GPRMC,140739.678,A,4849.3836,N,00905.6493,E,25.94,037.81,110317,,,A*FF
$GPRMC,140739.779,A,4849.3842,N,00905.6500,E,26.18,037.81,110317,,,A*FF
$GPRMC,140739.880,A,4849.3847,N,00905.6507,E,26.41,037.81,110317,,,A*FF
$GPRMC,140739.981,A,4849.3854,N,00905.6513,E,26.65,023.01,110317,,,A*FF
$GPRMC,140740.082,A,4849.3861,N,00905.6517,E,26.88,023.01,110317,,,A*FF
$GPRMC,140740.183,A,4849.3868,N,00905.6521,E,27.12,023.01,110317,,,A*FF
$GPRMC,140740.284,A,4849.3875,N,00905.6526,E,27.35,023.01,110317,,,A*FF
$GPRMC,140740.385,A,4849.3882,N,00905.6530,E,27.58,023.01,110317,,,A*FF
$GPRMC,140740.486,A,4849.3889,N,00905.6535,E,27.82,023.01,110317,,,A*FF
$GPRMC,140740.587,A,4849.3896,N,00905.6540,E,28.05,023.01,110317,,,A*FF
$GPRMC,140740.688,A,4849.3903,N,00905.6544,E,28.28,023.01,110317,,,A*FF
$GPRMC,140740.789,A,4849.3911,N,00905.6549,E,28.52,023.01,110317,,,A*FF
$GPRMC,140740.890,A,4849.3918,N,00905.6554,E,28.75,023.01,110317,,,A*FF
$GPRMC,140740.991,A,4849.3925,N,00905.6558,E,28.98,023.01,110317,,,A*FF
$GPRMC,140741.092,A,4849.3933,N,00905.6562,E,29.22,013.50,110317,,,A*FF
$GPRMC,140741.192,A,4849.3941,N,00905.6565,E,29.45,013.50,110317,,,A*FF
$GPRMC,140741.293,A,4849.3949,N,00905.6568,E,29.69,013.50,110317,,,A*FF
$GPRMC,140741.393,A,4849.3957,N,00905.6570,E,29.92,013.50,110317,,,A*FF
$GPRMC,140741.494,A,4849.3965,N,00905.6573,E,30.15,013.50,110317,,,A*FF
$GPRMC,140741.594,A,4849.3974,N,00905.6576,E,30.39,013.50,110317,,,A*FF
$GPRMC,140741.695,A,4849.3982,N,00905.6579,E,30.62,013.50,110317,,,A*FF
$GPRMC,140741.795,A,4849.3990,N,00905.6582,E,30.85,013.50,110317,,,A*FF
$GPRMC,140741.895,A,4849.3998,N,00905.6585,E,31.09,013.50,110317,,,A*FF
$GPRMC,140741.996,A,4849.4007,N,00905.6588,E,31.32,002.11,110317,,,A*FF
$GPRMC,140742.096,A,4849.4016,N,00905.6589,E,31.56,002.11,110317,,,A*FF
$GPRMC,140742.197,A,4849.4024,N,00905.6589,E,31.79,002.11,110317,,,A*FF
$GPRMC,140742.297,A,4849.4033,N,00905.6590,E,32.02,002.11,110317,,,A*FF
$GPRMC,140742.397,A,4849.4042,N,00905.6590,E,32.26,002.11,110317,,,A*FF
$GPRMC,140742.498,A,4849.4051,N,00905.6591,E,32.40,002.11,110317,,,A*FF
$GPRMC,140742.598,A,4849.4060,N,00905.6591,E,32.40,002.11,110317,,,A*FF
$GPRMC,140742.699,A,4849.4069,N,00905.6592,E,32.40,002.11,110317,,,A*FF
$GPRMC,140742.799,A,4849.4078,N,00905.6592,E,32.40,002.11,110317,,,A*FF
$GPRMC,140742.899,A,4849.4087,N,00905.6593,E,32.40,002.11,110317,,,A*FF
$GPRMC,140743.000,A,4849.4096,N,00905.6593,E,32.40,002.11,110317,,,A*FF
$GPRMC,140743.100,A,4849.4105,N,00905.6594,E,32.40,002.11,110317,,,A*FF
$GPRMC,140743.201,A,4849.4114,N,00905.6594,E,32.40,002.11,110317,,,A*FF
$GPRMC,140743.301,A,4849.4123,N,00905.6595,E,32.40,002.11,110317,,,A*FF
$GPRMC,140743.401,A,4849.4132,N,00905.6595,E,32.40,002.11,110317,,,A*FF
$GPRMC,140743.502,A,4849.4141,N,00905.6596,E,32.40,002.11,110317,,,A*FF
$GPRMC,140743.602,A,4849.4150,N,00905.6596,E,32.40,002.11,110317,,,A*FF
$GPRMC,140743.703,A,4849.4159,N,00905.6596,E,32.40,359.14,110317,,,A*FF
$GPRMC,140743.803,A,4849.4168,N,00905.6596,E,32.40,359.14,110317,,,A*FF
$GPRMC,140743.903,A,4849.4177,N,00905.6596,E,32.40,359.14,110317,,,A*FF
$GPRMC,140744.004,A,4849.4186,N,00905.6596,E,32.40,359.14,110317,,,A*FF
$GPRMC,140744.104,A,4849.4195,N,00905.6595,E,32.40,359.14,110317,,,A*FF
$GPRMC,140744.205,A,4849.4204,N,00905.6595,E,32.40,359.14,110317,,,A*FF
$GPRMC,140744.305,A,4849.4213,N,00905.6595,E,32.40,359.14,110317,,,A*FF
$GPRMC,140744.405,A,4849.4222,N,00905.6595,E,32.40,359.14,110317,,,A*FF
$GPRMC,140744.506,A,4849.4231,N,00905.6595,E,32.40,359.14,110317,,,A*FF
$GPRMC,140744.606,A,4849.4240,N,00905.6594,E,32.40,359.14,110317,,,A*FF
$GPRMC,140744.707,A,4849.4249,N,00905.6594,E,32.40,359.14,110317,,,A*FF
$GPRMC,140744.807,A,4849.4258,N,00905.6594,E,32.40,359.14,110317,,,A*FF
$GPRMC,140744.907,A,4849.4267,N,00905.6594,E,32.40,359.14,110317,,,A*FF
$GPRMC,140745.008,A,4849.4276,N,00905.6594,E,32.40,359.14,110317,,,A*FF
$GPRMC,140745.108,A,4849.4285,N,00905.6593,E,32.40,359.14,110317,,,A*FF
$GPRMC,140745.209,A,4849.4294,N,00905.6593,E,32.40,359.14,110317,,,A*FF
$GPRMC,140745.310,A,4849.4303,N,00905.6593,E,32.40,359.14,110317,,,A*FF
$GPRMC,140745.411,A,4849.4312,N,00905.6593,E,32.40,359.14,110317,,,A*FF
$GPRMC,140745.512,A,4849.4321,N,00905.6593,E,32.40,359.14,110317,,,A*FF
$GPRMC,140745.613,A,4849.4330,N,00905.6592,E,32.40,359.14,110317,,,A*FF
$GPRMC,140745.714,A,4849.4339,N,00905.6592,E,32.40,359.14,110317,,,A*FF
$GPRMC,140745.815,A,4849.4348,N,00905.6592,E,32.40,359.14,110317,,,A*FF
$GPRMC,140745.916,A,4849.4357,N,00905.6592,E,32.40,359.14,110317,,,A*FF
$GPRMC,140746.017,A,4849.4365,N,00905.6591,E,32.40,355.70,110317,,,A*FF
$GPRMC,140746.117,A,4849.4374,N,00905.6590,E,32.40,355.70,110317,,,A*FF
$GPRMC,140746.218,A,4849.4383,N,00905.6589,E,32.40,355.70,110317,,,A*FF
$GPRMC,140746.319,A,4849.4392,N,00905.6588,E,32.40,355.70,110317,,,A*FF
$GPRMC,140746.420,A,4849.4401,N,00905.6587,E,32.40,355.70,110317,,,A*FF
$GPRMC,140746.521,A,4849.4410,N,00905.6586,E,32.40,355.70,110317,,,A*FF
$GPRMC,140746.622,A,4849.4419,N,00905.6585,E,32.40,355.70,110317,,,A*FF
$GPRMC,140746.722,A,4849.4428,N,00905.6584,E,32.40,355.70,110317,,,A*FF
$GPRMC,140746.823,A,4849.4437,N,00905.6583,E,32.40,355.70,110317,,,A*FF
$GPRMC,140746.924,A,4849.4446,N,00905.6582,E,32.40,355.70,110317,,,A*FF
$GPRMC,140747.024,A,4849.4455,N,00905.6581,E,32.40,355.70,110317,,,A*FF
$GPRMC,140747.125,A,4849.4464,N,00905.6580,E,32.40,355.70,110317,,,A*FF
$GPRMC,140747.225,A,4849.4473,N,00905.6579,E,32.40,355.70,110317,,,A*FF
$GPRMC,140747.326,A,4849.4482,N,00905.6578,E,32.40,355.70,110317,,,A*FF
$GPRMC,140747.427,A,4849.4491,N,00905.6577,E,32.40,355.70,110317,,,A*FF
$GPRMC,140747.527,A,4849.4500,N,00905.6576,E,32.40,355.70,110317,,,A*FF
$GPRMC,140747.628,A,4849.4509,N,00905.6575,E,32.40,355.70,110317,,,A*FF
$GPRMC,140747.728,A,4849.4518,N,00905.6574,E,32.40,355.70,110317,,,A*FF
$GPRMC,140747.829,A,4849.4527,N,00905.6573,E,32.40,355.70,110317,,,A*FF
$GPRMC,140747.930,A,4849.4536,N,00905.6572,E,32.40,355.70,110317,,,A*FF
$GPRMC,140748.030,A,4849.4545,N,00905.6571,E,32.40,355.70,110317,,,A*FF
$GPRMC,140748.131,A,4849.4554,N,00905.6570,E,32.40,355.70,110317,,,A*FF
$GPRMC,140748.232,A,4849.4563,N,00905.6569,E,32.40,356.66,110317,,,A*FF
$GPRMC,140748.332,A,4849.4572,N,00905.6568,E,32.40,356.66,110317,,,A*FF
$GPRMC,140748.433,A,4849.4581,N,00905.6567,E,32.40,356.66,110317,,,A*FF
$GPRMC,140748.534,A,4849.4590,N,00905.6567,E,32.40,356.66,110317,,,A*FF
$GPRMC,140748.635,A,4849.4599,N,00905.6566,E,32.40,356.66,110317,,,A*FF
$GPRMC,140748.735,A,4849.4608,N,00905.6565,E,32.40,356.66,110317,,,A*FF
$GPRMC,140748.836,A,4849.4616,N,00905.6564,E,32.40,356.66,110317,,,A*FF
$GPRMC,140748.937,A,4849.4625,N,00905.6563,E,32.40,356.66,110317,,,A*FF
$GPRMC,140749.037,A,4849.4634,N,00905.6563,E,32.40,356.66,110317,,,A*FF
$GPRMC,140749.138,A,4849.4643,N,00905.6562,E,32.40,356.66,110317,,,A*FF
$GPRMC,140749.239,A,4849.4652,N,00905.6561,E,32.40,356.66,110317,,,A*FF
$GPRMC,140749.339,A,4849.4661,N,00905.6560,E,32.40,356.66,110317,,,A*FF
$GPRMC,140749.440,A,4849.4670,N,00905.6559,E,32.40,356.66,110317,,,A*FF
$GPRMC,140749.541,A,4849.4679,N,00905.6559,E,32.40,356.66,110317,,,A*FF
$GPRMC,140749.641,A,4849.4688,N,00905.6558,E,32.40,356.66,110317,,,A*FF
$GPRMC,140749.742,A,4849.4697,N,00905.6557,E,32.40,356.66,110317,,,A*FF
$GPRMC,140749.842,A,4849.4706,N,00905.6556,E,32.40,356.66,110317,,,A*FF
$GPRMC,140749.943,A,4849.4715,N,00905.6555,E,32.40,356.66,110317,,,A*FF
$GPRMC,140750.044,A,4849.4724,N,00905.6555,E,32.40,356.66,110317,,,A*FF
$GPRMC,140750.144,A,4849.4733,N,00905.6554,E,32.40,356.66,110317,,,A*FF
$GPRMC,140750.245,A,4849.4742,N,00905.6553,E,32.40,356.66,110317,,,A*FF
$GPRMC,140750.345,A,4849.4751,N,00905.6552,E,32.40,356.66,110317,,,A*FF
$GPRMC,140750.446,A,4849.4760,N,00905.6551,E,32.40,356.66,110317,,,A*FF
$GPRMC,140750.546,A,4849.4769,N,00905.6551,E,32.40,356.66,110317,,,A*FF
$GPRMC,140750.647,A,4849.4778,N,00905.6550,E,32.40,356.66,110317,,,A*FF
$GPRMC,140750.748,A,4849.4787,N,00905.6549,E,32.40,356.66,110317,,,A*FF
$GPRMC,140750.848,A,4849.4796,N,00905.6548,E,32.40,356.66,110317,,,A*FF
$GPRMC,140750.949,A,4849.4805,N,00905.6547,E,32.40,356.00,110317,,,A*FF
$GPRMC,140751.049,A,4849.4814,N,00905.6546,E,32.00,356.00,110317,,,A*FF
$GPRMC,140751.150,A,4849.4823,N,00905.6545,E,31.33,356.00,110317,,,A*FF
$GPRMC,140751.251,A,4849.4831,N,00905.6545,E,30.66,356.00,110317,,,A*FF
$GPRMC,140751.351,A,4849.4839,N,00905.6544,E,30.00,356.00,110317,,,A*FF
$GPRMC,140751.452,A,4849.4848,N,00905.6543,E,29.33,356.00,110317,,,A*FF
$GPRMC,140751.552,A,4849.4856,N,00905.6542,E,28.67,356.00,110317,,,A*FF
$GPRMC,140751.652,A,4849.4864,N,00905.6541,E,28.00,356.00,110317,,,A*FF
$GPRMC,140751.753,A,4849.4871,N,00905.6540,E,27.33,356.00,110317,,,A*FF
$GPRMC,140751.853,A,4849.4879,N,00905.6539,E,26.66,356.00,110317,,,A*FF
$GPRMC,140751.953,A,4849.4886,N,00905.6539,E,26.00,356.00,110317,,,A*FF
$GPRMC,140752.054,A,4849.4893,N,00905.6538,E,25.33,356.00,110317,,,A*FF
$GPRMC,140752.154,A,4849.4900,N,00905.6537,E,24.67,356.00,110317,,,A*FF
$GPRMC,140752.254,A,4849.4907,N,00905.6536,E,24.00,356.00,110317,,,A*FF
$GPRMC,140752.355,A,4849.4913,N,00905.6536,E,23.33,356.00,110317,,,A*FF
$GPRMC,140752.455,A,4849.4920,N,00905.6535,E,22.67,356.00,110317,,,A*FF
$GPRMC,140752.556,A,4849.4926,N,00905.6534,E,22.00,356.00,110317,,,A*FF
$GPRMC,140752.656,A,4849.4932,N,00905.6534,E,21.33,356.00,110317,,,A*FF
$GPRMC,140752.756,A,4849.4938,N,00905.6533,E,20.66,356.00,110317,,,A*FF
$GPRMC,140752.857,A,4849.4943,N,00905.6533,E,20.00,356.00,110317,,,A*FF
$GPRMC,140752.957,A,4849.4949,N,00905.6532,E,19.33,356.00,110317,,,A*FF
$GPRMC,140753.057,A,4849.4954,N,00905.6531,E,18.67,356.00,110317,,,A*FF
$GPRMC,140753.158,A,4849.4959,N,00905.6531,E,18.00,356.00,110317,,,A*FF
$GPRMC,140753.258,A,4849.4964,N,00905.6530,E,17.33,356.00,110317,,,A*FF
$GPRMC,140753.358,A,4849.4969,N,00905.6530,E,16.66,356.00,110317,,,A*FF
$GPRMC,140753.459,A,4849.4973,N,00905.6529,E,16.00,356.00,110317,,,A*FF
$GPRMC,140753.559,A,4849.4978,N,00905.6529,E,15.33,356.00,110317,,,A*FF
$GPRMC,140753.659,A,4849.4982,N,00905.6528,E,14.67,356.00,110317,,,A*FF
$GPRMC,140753.760,A,4849.4986,N,00905.6528,E,14.00,356.00,110317,,,A*FF
$GPRMC,140753.860,A,4849.4989,N,00905.6528,E,13.33,356.00,110317,,,A*FF
$GPRMC,140753.960,A,4849.4993,N,00905.6527,E,12.67,356.00,110317,,,A*FF
$GPRMC,140754.061,A,4849.4996,N,00905.6527,E,12.00,356.00,110317,,,A*FF
$GPRMC,140754.161,A,4849.5000,N,00905.6527,E,11.33,356.00,110317,,,A*FF
$GPRMC,140754.261,A,4849.5003,N,00905.6526,E,10.80,356.00,110317,,,A*FF
$GPRMC,140754.362,A,4849.5006,N,00905.6526,E,10.80,356.00,110317,,,A*FF
$GPRMC,140754.462,A,4849.5009,N,00905.6526,E,10.80,356.00,110317,,,A*FF
$GPRMC,140754.562,A,4849.5012,N,00905.6526,E,10.80,359.33,110317,,,A*FF
$GPRMC,140754.663,A,4849.5015,N,00905.6526,E,10.80,359.33,110317,,,A*FF
$GPRMC,140754.763,A,4849.5018,N,00905.6525,E,10.80,359.33,110317,,,A*FF
$GPRMC,140754.863,A,4849.5021,N,00905.6525,E,10.80,359.33,110317,,,A*FF
$GPRMC,140754.964,A,4849.5024,N,00905.6525,E,10.80,359.33,110317,,,A*FF
$GPRMC,140755.064,A,4849.5027,N,00905.6525,E,10.80,359.33,110317,,,A*FF
$GPRMC,140755.164,A,4849.5030,N,00905.6525,E,10.80,359.33,110317,,,A*FF
$GPRMC,140755.265,A,4849.5033,N,00905.6525,E,10.80,359.33,110317,,,A*FF
$GPRMC,140755.365,A,4849.5036,N,00905.6525,E,10.80,359.33,110317,,,A*FF
$GPRMC,140755.465,A,4849.5039,N,00905.6525,E,10.80,359.33,110317,,,A*FF
$GPRMC,140755.566,A,4849.5042,N,00905.6525,E,10.80,359.33,110317,,,A*FF
$GPRMC,140755.666,A,4849.5045,N,00905.6525,E,10.80,359.33,110317,,,A*FF
$GPRMC,140755.766,A,4849.5048,N,00905.6525,E,10.80,359.33,110317,,,A*FF
$GPRMC,140755.867,A,4849.5051,N,00905.6525,E,10.80,359.33,110317,,,A*FF
$GPRMC,140755.967,A,4849.5054,N,00905.6525,E,10.80,359.33,110317,,,A*FF
$GPRMC,140756.067,A,4849.5057,N,00905.6525,E,10.80,359.33,110317,,,A*FF
$GPRMC,140756.168,A,4849.5060,N,00905.6525,E,10.80,359.33,110317,,,A*FF
$GPRMC,140756.268,A,4849.5063,N,00905.6525,E,10.80,359.33,110317,,,A*FF
$GPRMC,140756.368,A,4849.5066,N,00905.6525,E,10.80,359.33,110317,,,A*FF
$GPRMC,140756.468,A,4849.5069,N,00905.6525,E,10.80,359.33,110317,,,A*FF
$GPRMC,140756.569,A,4849.5072,N,00905.6525,E,10.80,359.33,110317,,,A*FF
$GPRMC,140756.669,A,4849.5075,N,00905.6524,E,10.80,359.33,110317,,,A*FF
$GPRMC,140756.769,A,4849.5078,N,00905.6524,E,10.80,359.33,110317,,,A*FF
$GPRMC,140756.870,A,4849.5081,N,00905.6524,E,10.80,359.33,110317,,,A*FF
$GPRMC,140756.970,A,4849.5084,N,00905.6524,E,10.80,359.33,110317,,,A*FF
$GPRMC,140757.070,A,4849.5087,N,00905.6524,E,10.80,359.33,110317,,,A*FF
$GPRMC,140757.171,A,4849.5090,N,00905.6524,E,10.80,359.33,110317,,,A*FF
$GPRMC,140757.271,A,4849.5093,N,00905.6524,E,10.80,359.33,110317,,,A*FF
$GPRMC,140757.371,A,4849.5096,N,00905.6524,E,10.80,359.33,110317,,,A*FF
$GPRMC,140757.472,A,4849.5099,N,00905.6524,E,10.80,359.33,110317,,,A*FF
$GPRMC,140757.573,A,4849.5101,N,00905.6523,E,10.80,339.44,110317,,,A*FF
$GPRMC,140757.674,A,4849.5104,N,00905.6521,E,10.80,339.44,110317,,,A*FF
$GPRMC,140757.775,A,4849.5107,N,00905.6519,E,10.80,339.44,110317,,,A*FF
$GPRMC,140757.876,A,4849.5110,N,00905.6518,E,10.80,339.44,110317,,,A*FF
$GPRMC,140757.977,A,4849.5112,N,00905.6516,E,10.80,339.44,110317,,,A*FF
$GPRMC,140758.077,A,4849.5115,N,00905.6515,E,10.80,339.44,110317,,,A*FF
$GPRMC,140758.178,A,4849.5118,N,00905.6513,E,10.80,339.44,110317,,,A*FF
$GPRMC,140758.279,A,4849.5121,N,00905.6511,E,10.80,339.44,110317,,,A*FF
$GPRMC,140758.380,A,4849.5124,N,00905.6510,E,10.80,339.44,110317,,,A*FF
$GPRMC,140758.481,A,4849.5127,N,00905.6508,E,10.80,339.44,110317,,,A*FF
$GPRMC,140758.582,A,4849.5129,N,00905.6507,E,10.80,339.44,110317,,,A*FF
$GPRMC,140758.682,A,4849.5132,N,00905.6505,E,10.80,339.44,110317,,,A*FF
$GPRMC,140758.783,A,4849.5134,N,00905.6501,E,10.80,289.80,110317,,,A*FF
$GPRMC,140758.883,A,4849.5135,N,00905.6497,E,10.80,289.80,110317,,,A*FF
$GPRMC,140758.984,A,4849.5136,N,00905.6493,E,10.80,289.80,110317,,,A*FF
$GPRMC,140759.085,A,4849.5137,N,00905.6488,E,10.80,289.80,110317,,,A*FF
$GPRMC,140759.185,A,4849.5138,N,00905.6484,E,10.80,289.80,110317,,,A*FF
$GPRMC,140759.286,A,4849.5139,N,00905.6480,E,10.80,289.80,110317,,,A*FF
$GPRMC,140759.387,A,4849.5140,N,00905.6475,E,10.80,289.80,110317,,,A*FF
$GPRMC,140759.487,A,4849.5141,N,00905.6471,E,10.80,289.80,110317,,,A*FF
$GPRMC,140759.588,A,4849.5142,N,00905.6467,E,10.80,289.80,110317,,,A*FF
$GPRMC,140759.689,A,4849.5142,N,00905.6462,E,10.80,270.00,110317,,,A*FF
$GPRMC,140759.789,A,4849.5142,N,00905.6457,E,10.80,270.00,110317,,,A*FF
$GPRMC,140759.890,A,4849.5142,N,00905.6452,E,10.80,270.00,110317,,,A*FF
$GPRMC,140759.990,A,4849.5142,N,00905.6448,E,10.80,270.00,110317,,,A*FF
$GPRMC,140800.091,A,4849.5142,N,00905.6443,E,10.80,270.00,110317,,,A*FF
$GPRMC,140800.192,A,4849.5142,N,00905.6439,E,10.80,270.00,110317,,,A*FF
$GPRMC,140800.292,A,4849.5142,N,00905.6434,E,10.80,270.00,110317,,,A*FF
$GPRMC,140800.393,A,4849.5142,N,00905.6430,E,10.80,270.00,110317,,,A*FF
$GPRMC,140800.494,A,4849.5142,N,00905.6425,E,10.80,270.00,110317,,,A*FF
$GPRMC,140800.594,A,4849.5142,N,00905.6421,E,10.80,270.00,110317,,,A*FF
$GPRMC,140800.695,A,4849.5142,N,00905.6416,E,10.80,270.00,110317,,,A*FF
$GPRMC,140800.795,A,4849.5142,N,00905.6412,E,10.80,270.00,110317,,,A*FF
$GPRMC,140800.896,A,4849.5142,N,00905.6406,E,10.80,265.46,110317,,,A*FF
$GPRMC,140800.997,A,4849.5142,N,00905.6401,E,10.80,265.46,110317,,,A*FF
$GPRMC,140801.097,A,4849.5142,N,00905.6397,E,10.80,265.46,110317,,,A*FF
$GPRMC,140801.198,A,4849.5141,N,00905.6392,E,10.80,265.46,110317,,,A*FF
$GPRMC,140801.299,A,4849.5141,N,00905.6388,E,10.80,265.46,110317,,,A*FF
$GPRMC,140801.399,A,4849.5141,N,00905.6383,E,10.80,265.46,110317,,,A*FF
$GPRMC,140801.500,A,4849.5141,N,00905.6378,E,10.80,265.46,110317,,,A*FF
$GPRMC,140801.601,A,4849.5140,N,00905.6374,E,10.80,265.46,110317,,,A*FF
$GPRMC,140801.701,A,4849.5140,N,00905.6369,E,10.80,265.46,110317,,,A*FF
$GPRMC,140801.802,A,4849.5140,N,00905.6365,E,10.80,265.46,110317,,,A*FF
$GPRMC,140801.902,A,4849.5140,N,00905.6360,E,10.80,265.46,110317,,,A*FF
$GPRMC,140802.003,A,4849.5139,N,00905.6356,E,10.80,265.46,110317,,,A*FF
$GPRMC,140802.104,A,4849.5139,N,00905.6351,E,10.80,265.46,110317,,,A*FF
$GPRMC,140802.204,A,4849.5139,N,00905.6347,E,10.80,265.46,110317,,,A*FF
$GPRMC,140802.305,A,4849.5139,N,00905.6342,E,10.80,265.46,110317,,,A*FF
$GPRMC,140802.406,A,4849.5138,N,00905.6338,E,10.80,265.46,110317,,,A*FF
$GPRMC,140802.506,A,4849.5138,N,00905.6333,E,10.80,265.46,110317,,,A*FF
$GPRMC,140802.607,A,4849.5138,N,00905.6329,E,10.80,265.46,110317,,,A*FF
$GPRMC,140802.708,A,4849.5138,N,00905.6324,E,10.80,265.46,110317,,,A*FF
$GPRMC,140802.808,A,4849.5137,N,00905.6319,E,10.80,265.46,110317,,,A*FF
$GPRMC,140802.909,A,4849.5137,N,00905.6315,E,10.80,265.46,110317,,,A*FF
$GPRMC,140803.009,A,4849.5137,N,00905.6310,E,11.32,265.46,110317,,,A*FF
$GPRMC,140803.110,A,4849.5137,N,00905.6305,E,11.91,265.46,110317,,,A*FF
$GPRMC,140803.211,A,4849.5136,N,00905.6300,E,12.49,265.46,110317,,,A*FF
$GPRMC,140803.311,A,4849.5136,N,00905.6295,E,13.08,265.46,110317,,,A*FF
$GPRMC,140803.412,A,4849.5136,N,00905.6289,E,13.66,265.46,110317,,,A*FF
$GPRMC,140803.512,A,4849.5136,N,00905.6283,E,14.24,265.46,110317,,,A*FF
$GPRMC,140803.613,A,4849.5135,N,00905.6277,E,14.83,265.46,110317,,,A*FF
$GPRMC,140803.713,A,4849.5135,N,00905.6271,E,15.41,265.46,110317,,,A*FF
$GPRMC,140803.813,A,4849.5135,N,00905.6264,E,15.99,265.46,110317,,,A*FF
$GPRMC,140803.914,A,4849.5134,N,00905.6257,E,16.58,265.46,110317,,,A*FF
$GPRMC,140804.014,A,4849.5134,N,00905.6250,E,17.16,265.46,110317,,,A*FF
$GPRMC,140804.114,A,4849.5133,N,00905.6243,E,17.74,265.46,110317,,,A*FF
$GPRMC,140804.215,A,4849.5133,N,00905.6235,E,18.33,265.46,110317,,,A*FF
$GPRMC,140804.315,A,4849.5133,N,00905.6228,E,18.91,265.46,110317,,,A*FF
$GPRMC,140804.415,A,4849.5132,N,00905.6220,E,19.50,265.46,110317,,,A*FF
$GPRMC,140804.516,A,4849.5132,N,00905.6211,E,20.08,265.46,110317,,,A*FF
$GPRMC,140804.616,A,4849.5131,N,00905.6203,E,20.66,265.46,110317,,,A*FF
$GPRMC,140804.716,A,4849.5131,N,00905.6194,E,21.25,265.46,110317,,,A*FF
$GPRMC,140804.817,A,4849.5130,N,00905.6185,E,21.83,265.46,110317,,,A*FF
$GPRMC,140804.917,A,4849.5130,N,00905.6176,E,22.41,265.46,110317,,,A*FF
$GPRMC,140805.017,A,4849.5129,N,00905.6166,E,23.00,265.46,110317,,,A*FF
$GPRMC,140805.118,A,4849.5129,N,00905.6156,E,23.59,265.46,110317,,,A*FF
$GPRMC,140805.218,A,4849.5128,N,00905.6146,E,24.17,265.46,110317,,,A*FF
$GPRMC,140805.318,A,4849.5128,N,00905.6136,E,24.75,265.46,110317,,,A*FF
$GPRMC,140805.419,A,4849.5127,N,00905.6125,E,25.33,265.46,110317,,,A*FF
$GPRMC,140805.519,A,4849.5127,N,00905.6115,E,25.92,265.46,110317,,,A*FF
$GPRMC,140805.619,A,4849.5126,N,00905.6097,E,26.50,266.02,110317,,,A*FF
$GPRMC,140805.720,A,4849.5125,N,00905.6085,E,27.08,266.02,110317,,,A*FF
$GPRMC,140805.820,A,4849.5125,N,00905.6074,E,27.67,266.02,110317,,,A*FF
$GPRMC,140805.920,A,4849.5124,N,00905.6062,E,28.25,266.02,110317,,,A*FF
$GPRMC,140806.021,A,4849.5124,N,00905.6050,E,28.84,266.02,110317,,,A*FF
$GPRMC,140806.121,A,4849.5123,N,00905.6038,E,29.42,266.02,110317,,,A*FF
$GPRMC,140806.221,A,4849.5123,N,00905.6025,E,30.01,266.02,110317,,,A*FF
$GPRMC,140806.322,A,4849.5122,N,00905.6012,E,30.59,266.02,110317,,,A*FF
$GPRMC,140806.422,A,4849.5121,N,00905.5999,E,31.17,266.02,110317,,,A*FF
$GPRMC,140806.522,A,4849.5121,N,00905.5986,E,31.75,266.02,110317,,,A*FF
$GPRMC,140806.623,A,4849.5120,N,00905.5973,E,32.34,266.02,110317,,,A*FF
$GPRMC,140806.723,A,4849.5120,N,00905.5959,E,32.40,266.02,110317,,,A*FF
$GPRMC,140806.823,A,4849.5119,N,00905.5946,E,32.40,266.02,110317,,,A*FF
$GPRMC,140806.924,A,4849.5118,N,00905.5932,E,32.40,266.02,110317,,,A*FF
$GPRMC,140807.024,A,4849.5118,N,00905.5918,E,32.40,266.02,110317,,,A*FF
$GPRMC,140807.124,A,4849.5117,N,00905.5905,E,32.40,266.02,110317,,,A*FF
$GPRMC,140807.225,A,4849.5116,N,00905.5891,E,32.40,266.02,110317,,,A*FF
$GPRMC,140807.325,A,4849.5116,N,00905.5877,E,32.40,266.02,110317,,,A*FF
$GPRMC,140807.425,A,4849.5115,N,00905.5864,E,32.40,266.02,110317,,,A*FF
$GPRMC,140807.526,A,4849.5115,N,00905.5850,E,32.40,266.02,110317,,,A*FF
$GPRMC,140807.626,A,4849.5114,N,00905.5837,E,32.40,266.02,110317,,,A*FF
$GPRMC,140807.726,A,4849.5113,N,00905.5823,E,32.40,266.02,110317,,,A*FF
$GPRMC,140807.827,A,4849.5113,N,00905.5809,E,32.40,266.02,110317,,,A*FF
$GPRMC,140807.927,A,4849.5112,N,00905.5796,E,32.40,266.02,110317,,,A*FF
$GPRMC,140808.027,A,4849.5111,N,00905.5774,E,32.40,267.30,110317,,,A*FF
$GPRMC,140808.127,A,4849.5111,N,00905.5761,E,32.40,267.30,110317,,,A*FF
$GPRMC,140808.228,A,4849.5110,N,00905.5747,E,32.40,267.30,110317,,,A*FF
$GPRMC,140808.328,A,4849.5110,N,00905.5734,E,32.40,267.30,110317,,,A*FF
$GPRMC,140808.428,A,4849.5110,N,00905.5720,E,32.40,267.30,110317,,,A*FF
$GPRMC,140808.529,A,4849.5109,N,00905.5706,E,32.40,267.30,110317,,,A*FF
$GPRMC,140808.629,A,4849.5109,N,00905.5693,E,32.40,267.30,110317,,,A*FF
$GPRMC,140808.729,A,4849.5108,N,00905.5679,E,32.40,267.30,110317,,,A*FF
$GPRMC,140808.830,A,4849.5108,N,00905.5665,E,32.40,267.30,110317,,,A*FF
$GPRMC,140808.930,A,4849.5107,N,00905.5652,E,32.40,267.30,110317,,,A*FF
$GPRMC,140809.030,A,4849.5107,N,00905.5638,E,32.40,267.30,110317,,,A*FF
$GPRMC,140809.131,A,4849.5107,N,00905.5624,E,32.40,267.30,110317,,,A*FF
$GPRMC,140809.231,A,4849.5106,N,00905.5611,E,32.40,267.30,110317,,,A*FF
$GPRMC,140809.331,A,4849.5106,N,00905.5597,E,32.40,267.30,110317,,,A*FF
$GPRMC,140809.432,A,4849.5105,N,00905.5583,E,32.40,267.30,110317,,,A*FF
$GPRMC,140809.532,A,4849.5105,N,00905.5570,E,32.40,267.30,110317,,,A*FF
$GPRMC,140809.632,A,4849.5104,N,00905.5556,E,32.40,267.30,110317,,,A*FF
$GPRMC,140809.733,A,4849.5104,N,00905.5543,E,32.40,267.30,110317,,,A*FF
$GPRMC,140809.833,A,4849.5104,N,00905.5529,E,32.40,267.30,110317,,,A*FF
$GPRMC,140809.933,A,4849.5103,N,00905.5515,E,32.40,267.30,110317,,,A*FF
$GPRMC,140810.034,A,4849.5103,N,00905.5502,E,32.40,267.30,110317,,,A*FF
$GPRMC,140810.134,A,4849.5102,N,00905.5488,E,32.40,267.30,110317,,,A*FF
$GPRMC,140810.234,A,4849.5102,N,00905.5474,E,32.40,267.30,110317,,,A*FF
$GPRMC,140810.335,A,4849.5101,N,00905.5461,E,32.40,267.30,110317,,,A*FF
$GPRMC,140810.435,A,4849.5101,N,00905.5447,E,32.40,267.30,110317,,,A*FF
$GPRMC,140810.535,A,4849.5101,N,00905.5433,E,32.40,267.30,110317,,,A*FF
$GPRMC,140810.636,A,4849.5100,N,00905.5420,E,32.40,267.30,110317,,,A*FF
$GPRMC,140810.736,A,4849.5100,N,00905.5406,E,32.40,267.30,110317,,,A*FF
$GPRMC,140810.836,A,4849.5099,N,00905.5392,E,32.40,267.30,110317,,,A*FF
$GPRMC,140810.937,A,4849.5099,N,00905.5369,E,32.40,266.17,110317,,,A*FF
$GPRMC,140811.037,A,4849.5098,N,00905.5356,E,32.40,266.17,110317,,,A*FF
$GPRMC,140811.137,A,4849.5097,N,00905.5342,E,32.40,266.17,110317,,,A*FF
$GPRMC,140811.238,A,4849.5097,N,00905.5328,E,32.40,266.17,110317,,,A*FF
$GPRMC,140811.338,A,4849.5096,N,00905.5315,E,32.40,266.17,110317,,,A*FF
$GPRMC,140811.438,A,4849.5096,N,00905.5301,E,32.40,266.17,110317,,,A*FF
$GPRMC,140811.539,A,4849.5095,N,00905.5288,E,32.40,266.17,110317,,,A*FF
$GPRMC,140811.639,A,4849.5094,N,00905.5274,E,32.40,266.17,110317,,,A*FF
$GPRMC,140811.739,A,4849.5094,N,00905.5260,E,32.40,266.17,110317,,,A*FF
$GPRMC,140811.840,A,4849.5093,N,00905.5247,E,32.40,266.17,110317,,,A*FF
$GPRMC,140811.940,A,4849.5093,N,00905.5233,E,32.40,266.17,110317,,,A*FF
$GPRMC,140812.040,A,4849.5092,N,00905.5219,E,32.40,266.17,110317,,,A*FF
$GPRMC,140812.141,A,4849.5091,N,00905.5206,E,32.40,266.17,110317,,,A*FF
$GPRMC,140812.241,A,4849.5091,N,00905.5192,E,32.40,266.17,110317,,,A*FF
$GPRMC,140812.341,A,4849.5090,N,00905.5178,E,32.40,266.17,110317,,,A*FF
$GPRMC,140812.442,A,4849.5090,N,00905.5165,E,32.40,266.17,110317,,,A*FF
$GPRMC,140812.542,A,4849.5089,N,00905.5151,E,32.40,266.17,110317,,,A*FF
$GPRMC,140812.642,A,4849.5088,N,00905.5138,E,32.40,266.17,110317,,,A*FF
$GPRMC,140812.743,A,4849.5088,N,00905.5124,E,32.40,266.17,110317,,,A*FF
$GPRMC,140812.843,A,4849.5087,N,00905.5113,E,00.03,266.17,110317,,,A*FF
$GPRMC,140812.943,A,4849.5087,N,00905.5113,E,00.19,266.17,110317,,,A*FF
$GPRMC,140813.043,A,4849.5087,N,00905.5113,E,00.35,266.17,110317,,,A*FF
$GPRMC,140813.144,A,4849.5087,N,00905.5113,E,00.51,266.17,110317,,,A*FF
$GPRMC,140813.244,A,4849.5087,N,00905.5112,E,00.67,266.17,110317,,,A*FF
$GPRMC,140813.344,A,4849.5087,N,00905.5112,E,00.83,266.17,110317,,,A*FF
$GPRMC,140813.445,A,4849.5087,N,00905.5112,E,00.99,266.17,110317,,,A*FF
$GPRMC,140813.545,A,4849.5087,N,00905.5111,E,01.14,266.17,110317,,,A*FF
$GPRMC,140813.645,A,4849.5087,N,00905.5111,E,01.31,266.17,110317,,,A*FF
$GPRMC,140813.746,A,4849.5087,N,00905.5110,E,01.46,266.17,110317,,,A*FF
$GPRMC,140813.846,A,4849.5087,N,00905.5110,E,01.63,266.17,110317,,,A*FF
$GPRMC,140813.946,A,4849.5087,N,00905.5109,E,01.78,266.17,110317,,,A*FF
$GPRMC,140814.047,A,4849.5087,N,00905.5108,E,01.94,266.17,110317,,,A*FF
$GPRMC,140814.147,A,4849.5087,N,00905.5107,E,02.10,266.17,110317,,,A*FF
$GPRMC,140814.247,A,4849.5087,N,00905.5106,E,02.26,266.17,110317,,,A*FF
$GPRMC,140814.348,A,4849.5087,N,00905.5105,E,02.42,266.17,110317,,,A*FF
$GPRMC,140814.448,A,4849.5087,N,00905.5104,E,02.58,266.17,110317,,,A*FF
$GPRMC,140814.549,A,4849.5087,N,00905.5103,E,02.74,266.17,110317,,,A*FF
$GPRMC,140814.649,A,4849.5087,N,00905.5102,E,02.90,266.17,110317,,,A*FF
$GPRMC,140814.749,A,4849.5087,N,00905.5101,E,03.06,266.17,110317,,,A*FF
$GPRMC,140814.850,A,4849.5087,N,00905.5099,E,03.22,266.17,110317,,,A*FF
$GPRMC,140814.950,A,4849.5087,N,00905.5098,E,03.37,266.17,110317,,,A*FF
$GPRMC,140815.050,A,4849.5087,N,00905.5097,E,03.54,266.17,110317,,,A*FF
$GPRMC,140815.151,A,4849.5086,N,00905.5095,E,03.69,266.17,110317,,,A*FF
$GPRMC,140815.251,A,4849.5086,N,00905.5093,E,03.86,266.17,110317,,,A*FF
$GPRMC,140815.351,A,4849.5086,N,00905.5092,E,04.01,266.17,110317,,,A*FF
$GPRMC,140815.452,A,4849.5086,N,00905.5090,E,04.17,266.17,110317,,,A*FF
$GPRMC,140815.552,A,4849.5086,N,00905.5088,E,04.33,266.17,110317,,,A*FF
$GPRMC,140815.652,A,4849.5086,N,00905.5086,E,04.49,266.17,110317,,,A*FF
$GPRMC,140815.753,A,4849.5086,N,00905.5084,E,04.65,266.17,110317,,,A*FF
$GPRMC,140815.853,A,4849.5086,N,00905.5083,E,04.81,266.17,110317,,,A*FF
$GPRMC,140815.953,A,4849.5086,N,00905.5080,E,04.97,266.17,110317,,,A*FF
$GPRMC,140816.054,A,4849.5086,N,00905.5078,E,05.13,266.17,110317,,,A*FF
$GPRMC,140816.154,A,4849.5086,N,00905.5076,E,05.29,266.17,110317,,,A*FF
$GPRMC,140816.254,A,4849.5086,N,00905.5074,E,05.45,266.17,110317,,,A*FF
$GPRMC,140816.355,A,4849.5085,N,00905.5072,E,05.60,266.17,110317,,,A*FF
$GPRMC,140816.455,A,4849.5085,N,00905.5069,E,05.77,266.17,110317,,,A*FF
$GPRMC,140816.555,A,4849.5085,N,00905.5067,E,05.92,266.17,110317,,,A*FF
$GPRMC,140816.656,A,4849.5085,N,00905.5064,E,06.09,266.17,110317,,,A*FF
$GPRMC,140816.756,A,4849.5085,N,00905.5062,E,06.24,266.17,110317,,,A*FF
$GPRMC,140816.856,A,4849.5085,N,00905.5059,E,06.40,266.17,110317,,,A*FF
$GPRMC,140816.956,A,4849.5085,N,00905.5056,E,06.56,266.17,110317,,,A*FF
$GPRMC,140817.057,A,4849.5085,N,00905.5053,E,06.72,266.17,110317,,,A*FF
$GPRMC,140817.157,A,4849.5085,N,00905.5051,E,06.88,266.17,110317,,,A*FF
$GPRMC,140817.257,A,4849.5084,N,00905.5048,E,07.04,266.17,110317,,,A*FF
$GPRMC,140817.358,A,4849.5084,N,00905.5045,E,07.20,266.17,110317,,,A*FF
$GPRMC,140817.458,A,4849.5084,N,00905.5042,E,07.36,266.17,110317,,,A*FF
$GPRMC,140817.558,A,4849.5084,N,00905.5038,E,07.52,266.17,110317,,,A*FF
$GPRMC,140817.659,A,4849.5084,N,00905.5035,E,07.68,266.17,110317,,,A*FF
$GPRMC,140817.759,A,4849.5084,N,00905.5032,E,07.83,266.17,110317,,,A*FF
$GPRMC,140817.859,A,4849.5084,N,00905.5029,E,08.00,266.17,110317,,,A*FF
$GPRMC,140817.960,A,4849.5083,N,00905.5025,E,08.15,266.17,110317,,,A*FF
$GPRMC,140818.060,A,4849.5083,N,00905.5022,E,08.32,266.17,110317,,,A*FF
$GPRMC,140818.160,A,4849.5083,N,00905.5010,E,08.47,267.49,110317,,,A*FF
$GPRMC,140818.261,A,4849.5083,N,00905.5006,E,08.63,267.49,110317,,,A*FF
$GPRMC,140818.361,A,4849.5083,N,00905.5003,E,08.79,267.49,110317,,,A*FF
$GPRMC,140818.461,A,4849.5082,N,00905.4999,E,08.95,267.49,110317,,,A*FF
$GPRMC,140818.562,A,4849.5082,N,00905.4995,E,09.11,267.49,110317,,,A*FF
$GPRMC,140818.662,A,4849.5082,N,00905.4991,E,09.27,267.49,110317,,,A*FF
$GPRMC,140818.762,A,4849.5082,N,00905.4987,E,09.43,267.49,110317,,,A*FF
$GPRMC,140818.863,A,4849.5082,N,00905.4983,E,09.59,267.49,110317,,,A*FF
$GPRMC,140818.963,A,4849.5082,N,00905.4979,E,09.75,267.49,110317,,,A*FF
$GPRMC,140819.063,A,4849.5082,N,00905.4975,E,09.91,267.49,110317,,,A*FF
$GPRMC,140819.164,A,4849.5082,N,00905.4971,E,10.06,267.49,110317,,,A*FF
$GPRMC,140819.264,A,4849.5082,N,00905.4967,E,10.23,267.49,110317,,,A*FF
$GPRMC,140819.364,A,4849.5081,N,00905.4962,E,10.38,267.49,110317,,,A*FF
$GPRMC,140819.465,A,4849.5081,N,00905.4958,E,10.55,267.49,110317,,,A*FF
$GPRMC,140819.566,A,4849.5081,N,00905.4953,E,10.70,267.49,110317,,,A*FF
$GPRMC,140819.666,A,4849.5081,N,00905.4949,E,10.80,267.49,110317,,,A*FF
$GPRMC,140819.767,A,4849.5081,N,00905.4944,E,10.80,267.49,110317,,,A*FF
$GPRMC,140819.867,A,4849.5081,N,00905.4940,E,10.80,267.49,110317,,,A*FF
$GPRMC,140819.968,A,4849.5081,N,00905.4935,E,10.80,267.49,110317,,,A*FF
$GPRMC,140820.068,A,4849.5080,N,00905.4931,E,10.80,267.49,110317,,,A*FF
$GPRMC,140820.169,A,4849.5080,N,00905.4926,E,10.80,267.49,110317,,,A*FF
$GPRMC,140820.270,A,4849.5080,N,00905.4921,E,10.80,267.49,110317,,,A*FF
$GPRMC,140820.370,A,4849.5080,N,00905.4917,E,10.80,267.49,110317,,,A*FF
$GPRMC,140820.471,A,4849.5080,N,00905.4912,E,10.80,267.49,110317,,,A*FF
$GPRMC,140820.571,A,4849.5080,N,00905.4908,E,10.80,267.49,110317,,,A*FF
$GPRMC,140820.672,A,4849.5080,N,00905.4903,E,10.80,267.49,110317,,,A*FF
$GPRMC,140820.772,A,4849.5080,N,00905.4899,E,10.80,267.49,110317,,,A*FF
$GPRMC,140820.873,A,4849.5079,N,00905.4894,E,10.80,267.49,110317,,,A*FF
$GPRMC,140820.974,A,4849.5079,N,00905.4890,E,10.80,267.49,110317,,,A*FF
$GPRMC,140821.074,A,4849.5079,N,00905.4885,E,10.80,267.49,110317,,,A*FF
$GPRMC,140821.175,A,4849.5079,N,00905.4881,E,10.80,267.49,110317,,,A*FF
$GPRMC,140821.275,A,4849.5079,N,00905.4876,E,10.80,267.49,110317,,,A*FF
$GPRMC,140821.376,A,4849.5079,N,00905.4871,E,10.80,267.49,110317,,,A*FF
$GPRMC,140821.476,A,4849.5079,N,00905.4867,E,10.80,267.49,110317,,,A*FF
$GPRMC,140821.577,A,4849.5079,N,00905.4862,E,10.80,267.49,110317,,,A*FF
$GPRMC,140821.677,A,4849.5078,N,00905.4858,E,10.80,267.49,110317,,,A*FF
$GPRMC,140821.777,A,4849.5078,N,00905.4853,E,10.80,267.49,110317,,,A*FF
$GPRMC,140821.878,A,4849.5078,N,00905.4849,E,10.80,267.49,110317,,,A*FF
$GPRMC,140821.978,A,4849.5078,N,00905.4844,E,10.80,267.49,110317,,,A*FF
$GPRMC,140822.079,A,4849.5078,N,00905.4840,E,10.80,267.49,110317,,,A*FF
$GPRMC,140822.179,A,4849.5078,N,00905.4835,E,10.80,267.49,110317,,,A*FF
$GPRMC,140822.280,A,4849.5078,N,00905.4831,E,10.80,267.49,110317,,,A*FF
$GPRMC,140822.381,A,4849.5077,N,00905.4826,E,10.80,267.49,110317,,,A*FF
$GPRMC,140822.481,A,4849.5077,N,00905.4821,E,10.80,267.49,110317,,,A*FF
$GPRMC,140822.582,A,4849.5077,N,00905.4817,E,10.80,267.49,110317,,,A*FF
$GPRMC,140822.682,A,4849.5077,N,00905.4812,E,10.80,267.49,110317,,,A*FF
